[
    {
        "Source": "https://www.bayut.com/property/details-4546740.html",
        "Emirate": " Dubai",
        "area": " Downtown Dubai",
        "building_name": "Burj Al Nujoom",
        "full_address": "Burj Al Nujoom, Downtown Dubai, Dubai",
        "lat": 25.191151,
        "long": 55.282047,
        "type": "apartment"
    },
    {
        "Source": "https://www.bayut.com/property/details-4545916.html",
        "Emirate": " Dubai",
        "area": " Jumeirah Village Circle (JVC)",
        "building_name": "Gardenia 2, Emirates Garden",
        "full_address": "Gardenia 2, Emirates Garden, Jumeirah Village Circle (JVC), Dubai",
        "lat": 25.056659,
        "long": 55.204191,
        "type": "apartment"
    },
    {
        "Source": "https://www.bayut.com/property/details-4530311.html",
        "Emirate": " Dubai",
        "area": " Jumeirah Village Circle (JVC)",
        "building_name": "Crystal Residence",
        "full_address": "Crystal Residence, Jumeirah Village Circle (JVC), Dubai",
        "lat": 25.066607,
        "long": 55.214837,
        "type": "apartment"
    },
    {
        "Source": "https://www.bayut.com/property/details-4521668.html",
        "Emirate": " Dubai",
        "area": " Jumeirah",
        "building_name": "Building 22, City Walk",
        "full_address": "Building 22, City Walk, Jumeirah, Dubai",
        "lat": 25.200213,
        "long": 55.264202,
        "type": "other"
    },
    {
        "Source": "https://www.bayut.com/property/details-4523474.html",
        "Emirate": " Dubai",
        "area": " Dubai Sports City",
        "building_name": "The Matrix",
        "full_address": "The Matrix, Dubai Sports City, Dubai",
        "lat": 25.039144,
        "long": 55.220734,
        "type": "apartment"
    },
    {
        "Source": "https://www.bayut.com/property/details-4529574.html",
        "Emirate": " Dubai",
        "area": " Downtown Dubai",
        "building_name": "Burj Khalifa",
        "full_address": "Burj Khalifa, Downtown Dubai, Dubai",
        "lat": 25.197159,
        "long": 55.274491,
        "type": "apartment"
    },
    {
        "Source": "https://www.bayut.com/property/details-4517159.html",
        "Emirate": " Dubai",
        "area": " Downtown Dubai",
        "building_name": "Burj Views Podium, Burj Views",
        "full_address": "Burj Views Podium, Burj Views, Downtown Dubai, Dubai",
        "lat": 25.190677,
        "long": 55.281575,
        "type": "apartment"
    },
    {
        "Source": "https://www.bayut.com/property/details-4519568.html",
        "Emirate": " Dubai",
        "area": " Bluewaters Island",
        "building_name": "Apartment Building 10, Bluewaters Residences",
        "full_address": "Apartment Building 10, Bluewaters Residences, Bluewaters Island, Dubai",
        "lat": 25.082066,
        "long": 55.121741,
        "type": "other"
    },
    {
        "Source": "https://www.bayut.com/property/details-4160910.html",
        "Emirate": " Dubai",
        "area": " Dubai Marina",
        "building_name": "Marina Wharf I, Marina Wharf",
        "full_address": "Marina Wharf I, Marina Wharf, Dubai Marina, Dubai",
        "lat": 25.072617,
        "long": 55.132876,
        "type": "apartment"
    },
    {
        "Source": "https://www.bayut.com/property/details-4512286.html",
        "Emirate": " Dubai",
        "area": " Palm Jumeirah",
        "building_name": "FIVE Palm Jumeirah",
        "full_address": "FIVE Palm Jumeirah, Palm Jumeirah, Dubai",
        "lat": 25.104144,
        "long": 55.148481,
        "type": "apartment"
    },
    {
        "Source": "https://www.bayut.com/property/details-4514479.html",
        "Emirate": " Dubai",
        "area": " Jumeirah Village Circle (JVC)",
        "building_name": "Zaya Hameni",
        "full_address": "Zaya Hameni, Jumeirah Village Circle (JVC), Dubai",
        "lat": 25.056394,
        "long": 55.205059,
        "type": "apartment"
    },
    {
        "Source": "https://www.bayut.com/property/details-4511587.html",
        "Emirate": " Dubai",
        "area": " Jumeirah Beach Residence (JBR)",
        "building_name": "Shams 4, Shams",
        "full_address": "Shams 4, Shams, Jumeirah Beach Residence (JBR), Dubai",
        "lat": 25.072898,
        "long": 55.130092,
        "type": "apartment"
    },
    {
        "Source": "https://www.bayut.com/property/details-4509185.html",
        "Emirate": " Dubai",
        "area": " Dubai Marina",
        "building_name": "Marina Gate 2, Marina Gate",
        "full_address": "Marina Gate 2, Marina Gate, Dubai Marina, Dubai",
        "lat": 25.086438,
        "long": 55.147157,
        "type": "apartment"
    },
    {
        "Source": "https://www.bayut.com/property/details-4504149.html",
        "Emirate": " Dubai",
        "area": " Jumeirah Beach Residence (JBR)",
        "building_name": "Rimal 2, Rimal",
        "full_address": "Rimal 2, Rimal, Jumeirah Beach Residence (JBR), Dubai",
        "lat": 25.077412,
        "long": 55.134255,
        "type": "apartment"
    },
    {
        "Source": "https://www.bayut.com/property/details-4502864.html",
        "Emirate": " Dubai",
        "area": " Dubai Marina",
        "building_name": "Marina Gate 2, Marina Gate",
        "full_address": "Marina Gate 2, Marina Gate, Dubai Marina, Dubai",
        "lat": 25.086438,
        "long": 55.147157,
        "type": "apartment"
    },
    {
        "Source": "https://www.bayut.com/property/details-4506582.html",
        "Emirate": " Dubai",
        "area": " Jumeirah Village Circle (JVC)",
        "building_name": "Noora Residence",
        "full_address": "Noora Residence, Jumeirah Village Circle (JVC), Dubai",
        "lat": 25.059871,
        "long": 55.205251,
        "type": "apartment"
    },
    {
        "Source": "https://www.bayut.com/property/details-4492224.html",
        "Emirate": " Dubai",
        "area": " Dubai Marina",
        "building_name": "Yacht Bay",
        "full_address": "Yacht Bay, Dubai Marina, Dubai",
        "lat": 25.071475,
        "long": 55.136792,
        "type": "apartment"
    },
    {
        "Source": "https://www.bayut.com/property/details-4453012.html",
        "Emirate": " Dubai",
        "area": " Dubai Hills Estate",
        "building_name": "Mulberry, Park Heights",
        "full_address": "Mulberry, Park Heights, Dubai Hills Estate, Dubai",
        "lat": 25.103737,
        "long": 55.245125,
        "type": "other"
    },
    {
        "Source": "https://www.bayut.com/property/details-4484509.html",
        "Emirate": " Dubai",
        "area": " Downtown Dubai",
        "building_name": "Standpoint Tower 1, Standpoint Towers",
        "full_address": "Standpoint Tower 1, Standpoint Towers, Downtown Dubai, Dubai",
        "lat": 25.196713,
        "long": 55.271,
        "type": "apartment"
    },
    {
        "Source": "https://www.bayut.com/property/details-4482392.html",
        "Emirate": " Dubai",
        "area": " Jumeirah Village Circle (JVC)",
        "building_name": "Botanica",
        "full_address": "Botanica, Jumeirah Village Circle (JVC), Dubai",
        "lat": 25.050287,
        "long": 55.207637,
        "type": "apartment"
    },
    {
        "Source": "https://www.bayut.com/property/details-4481722.html",
        "Emirate": " Dubai",
        "area": " Dubai Marina",
        "building_name": "Princess Tower",
        "full_address": "Princess Tower, Dubai Marina, Dubai",
        "lat": 25.08829,
        "long": 55.147253,
        "type": "apartment"
    },
    {
        "Source": "https://www.bayut.com/property/details-4481403.html",
        "Emirate": " Dubai",
        "area": " The Views",
        "building_name": "Turia Tower B, Turia",
        "full_address": "Turia Tower B, Turia, The Views, Dubai",
        "lat": 25.093464,
        "long": 55.168964,
        "type": "other"
    },
    {
        "Source": "https://www.bayut.com/property/details-4475653.html",
        "Emirate": " Dubai",
        "area": " Jumeirah Beach Residence (JBR)",
        "building_name": "Shams 4, Shams",
        "full_address": "Shams 4, Shams, Jumeirah Beach Residence (JBR), Dubai",
        "lat": 25.072898,
        "long": 55.130092,
        "type": "apartment"
    },
    {
        "Source": "https://www.bayut.com/property/details-4481421.html",
        "Emirate": " Dubai",
        "area": " Business Bay",
        "building_name": "Fairview Residency",
        "full_address": "Fairview Residency, Business Bay, Dubai",
        "lat": 25.181891,
        "long": 55.279624,
        "type": "apartment"
    },
    {
        "Source": "https://www.bayut.com/property/details-4475649.html",
        "Emirate": " Dubai",
        "area": " Jumeirah Lake Towers (JLT)",
        "building_name": "Dubai Arch Tower",
        "full_address": "Dubai Arch Tower, Jumeirah Lake Towers (JLT), Dubai",
        "lat": 25.071698,
        "long": 55.143677,
        "type": "apartment"
    },
    {
        "Source": "https://www.bayut.com/property/details-4167114.html",
        "Emirate": " Dubai",
        "area": " DAMAC Hills (Akoya by DAMAC)",
        "building_name": "Orchid",
        "full_address": "Orchid, DAMAC Hills (Akoya by DAMAC), Dubai",
        "lat": 25.013556,
        "long": 55.254335,
        "type": "other"
    },
    {
        "Source": "https://www.bayut.com/property/details-4454491.html",
        "Emirate": " Dubai",
        "area": " Jumeirah Village Circle (JVC)",
        "building_name": "Botanica",
        "full_address": "Botanica, Jumeirah Village Circle (JVC), Dubai",
        "lat": 25.050287,
        "long": 55.207637,
        "type": "apartment"
    },
    {
        "Source": "https://www.bayut.com/property/details-4468888.html",
        "Emirate": " Dubai",
        "area": " Jumeirah Village Circle (JVC)",
        "building_name": "Seasons Community",
        "full_address": "Seasons Community, Jumeirah Village Circle (JVC), Dubai",
        "lat": 25.059239,
        "long": 55.202383,
        "type": "apartment"
    },
    {
        "Source": "https://www.bayut.com/property/details-4470835.html",
        "Emirate": " Dubai",
        "area": " Dubai Silicon Oasis",
        "building_name": "Binghatti Views",
        "full_address": "Binghatti Views, Dubai Silicon Oasis, Dubai",
        "lat": 25.123049,
        "long": 55.376269,
        "type": "apartment"
    },
    {
        "Source": "https://www.bayut.com/property/details-4462650.html",
        "Emirate": " Dubai",
        "area": " Downtown Dubai",
        "building_name": "8 Boulevard Walk, Mohammad Bin Rashid Boulevard",
        "full_address": "8 Boulevard Walk, Mohammad Bin Rashid Boulevard, Downtown Dubai, Dubai",
        "lat": 25.191167,
        "long": 55.269865,
        "type": "apartment"
    },
    {
        "Source": "https://www.bayut.com/property/details-4461069.html",
        "Emirate": " Dubai",
        "area": " Downtown Dubai",
        "building_name": "South Ridge 1, South Ridge Towers",
        "full_address": "South Ridge 1, South Ridge Towers, Downtown Dubai, Dubai",
        "lat": 25.186969,
        "long": 55.276799,
        "type": "apartment"
    },
    {
        "Source": "https://www.bayut.com/property/details-4480426.html",
        "Emirate": " Dubai",
        "area": " Jumeirah Village Circle (JVC)",
        "building_name": "La Riviera Estates",
        "full_address": "La Riviera Estates, Jumeirah Village Circle (JVC), Dubai",
        "lat": 25.063212,
        "long": 55.202992,
        "type": "apartment"
    },
    {
        "Source": "https://www.bayut.com/property/details-4460469.html",
        "Emirate": " Dubai",
        "area": " Jumeirah Village Circle (JVC)",
        "building_name": "Lolena Residence",
        "full_address": "Lolena Residence, Jumeirah Village Circle (JVC), Dubai",
        "lat": 25.057293,
        "long": 55.214281,
        "type": "apartment"
    },
    {
        "Source": "https://www.bayut.com/property/details-4456859.html",
        "Emirate": " Dubai",
        "area": " Jumeirah Village Circle (JVC)",
        "building_name": "Pulse Smart Residence",
        "full_address": "Pulse Smart Residence, Jumeirah Village Circle (JVC), Dubai",
        "lat": 25.063662,
        "long": 55.211623,
        "type": "apartment"
    },
    {
        "Source": "https://www.bayut.com/property/details-4458027.html",
        "Emirate": " Dubai",
        "area": " Dubai Marina",
        "building_name": "Trident Grand Residence",
        "full_address": "Trident Grand Residence, Dubai Marina, Dubai",
        "lat": 25.082949,
        "long": 55.141301,
        "type": "apartment"
    },
    {
        "Source": "https://www.bayut.com/property/details-4457953.html",
        "Emirate": " Dubai",
        "area": " Discovery Gardens",
        "building_name": "Mogul",
        "full_address": "Mogul, Discovery Gardens, Dubai",
        "lat": 25.030771,
        "long": 55.155821,
        "type": "other"
    },
    {
        "Source": "https://www.bayut.com/property/details-4456829.html",
        "Emirate": " Dubai",
        "area": " Dubai Marina",
        "building_name": "Iris Blue",
        "full_address": "Iris Blue, Dubai Marina, Dubai",
        "lat": 25.085300445557,
        "long": 55.144798278809,
        "type": "apartment"
    },
    {
        "Source": "https://www.bayut.com/property/details-4470107.html",
        "Emirate": " Dubai",
        "area": " Jumeirah Village Circle (JVC)",
        "building_name": "Seasons Community",
        "full_address": "Seasons Community, Jumeirah Village Circle (JVC), Dubai",
        "lat": 25.059239,
        "long": 55.202383,
        "type": "apartment"
    },
    {
        "Source": "https://www.bayut.com/property/details-4450145.html",
        "Emirate": " Dubai",
        "area": " Jumeirah Village Circle (JVC)",
        "building_name": "Astoria Residence",
        "full_address": "Astoria Residence, Jumeirah Village Circle (JVC), Dubai",
        "lat": 25.06526,
        "long": 55.211685,
        "type": "apartment"
    },
    {
        "Source": "https://www.bayut.com/property/details-4443317.html",
        "Emirate": " Dubai",
        "area": " Dubai Festival City",
        "building_name": "Al Badia Residences",
        "full_address": "Al Badia Residences, Dubai Festival City, Dubai",
        "lat": 25.219443,
        "long": 55.368451,
        "type": "other"
    },
    {
        "Source": "https://www.bayut.com/property/details-4444777.html",
        "Emirate": " Dubai",
        "area": " Jumeirah Village Circle (JVC)",
        "building_name": "Ghalia Constella",
        "full_address": "Ghalia Constella, Jumeirah Village Circle (JVC), Dubai",
        "lat": 25.052751,
        "long": 55.199159,
        "type": "apartment"
    },
    {
        "Source": "https://www.bayut.com/property/details-4435141.html",
        "Emirate": " Dubai",
        "area": " Jumeirah Beach Residence (JBR)",
        "building_name": "Murjan 1, Murjan",
        "full_address": "Murjan 1, Murjan, Jumeirah Beach Residence (JBR), Dubai",
        "lat": 25.081455,
        "long": 55.139855,
        "type": "apartment"
    },
    {
        "Source": "https://www.bayut.com/property/details-2592733.html",
        "Emirate": " Dubai",
        "area": " Downtown Dubai",
        "building_name": "Armani Residence",
        "full_address": "Armani Residence, Downtown Dubai, Dubai",
        "lat": 25.197167,
        "long": 55.273931,
        "type": "apartment"
    },
    {
        "Source": "https://www.bayut.com/property/details-4434464.html",
        "Emirate": " Dubai",
        "area": " Jumeirah Village Circle (JVC)",
        "building_name": "Laya Residences",
        "full_address": "Laya Residences, Jumeirah Village Circle (JVC), Dubai",
        "lat": 25.06616,
        "long": 55.208844,
        "type": "apartment"
    },
    {
        "Source": "https://www.bayut.com/property/details-4438503.html",
        "Emirate": " Dubai",
        "area": " Palm Jumeirah",
        "building_name": "Al Hatimi, Shoreline Apartments",
        "full_address": "Al Hatimi, Shoreline Apartments, Palm Jumeirah, Dubai",
        "lat": 25.10934,
        "long": 55.147634,
        "type": "apartment"
    },
    {
        "Source": "https://www.bayut.com/property/details-4422855.html",
        "Emirate": " Dubai",
        "area": " Business Bay",
        "building_name": "Ubora Tower 1, U-Bora Tower",
        "full_address": "Ubora Tower 1, U-Bora Tower, Business Bay, Dubai",
        "lat": 25.179956,
        "long": 55.269723,
        "type": "apartment"
    },
    {
        "Source": "https://www.bayut.com/property/details-4423455.html",
        "Emirate": " Dubai",
        "area": " Culture Village",
        "building_name": "D1 Tower",
        "full_address": "D1 Tower, Culture Village, Dubai",
        "lat": 25.226752,
        "long": 55.343369,
        "type": "other"
    },
    {
        "Source": "https://www.bayut.com/property/details-4422911.html",
        "Emirate": " Dubai",
        "area": " Jumeirah Beach Residence (JBR)",
        "building_name": "Bahar 1, Bahar",
        "full_address": "Bahar 1, Bahar, Jumeirah Beach Residence (JBR), Dubai",
        "lat": 25.077203,
        "long": 55.13566,
        "type": "apartment"
    },
    {
        "Source": "https://www.bayut.com/property/details-4422143.html",
        "Emirate": " Dubai",
        "area": " Dubai Hills Estate",
        "building_name": "Acacia, Park Heights",
        "full_address": "Acacia, Park Heights, Dubai Hills Estate, Dubai",
        "lat": 25.115199,
        "long": 55.248462,
        "type": "apartment"
    },
    {
        "Source": "https://www.bayut.com/property/details-4422271.html",
        "Emirate": " Dubai",
        "area": " Dubai Marina",
        "building_name": "Marina Sail",
        "full_address": "Marina Sail, Dubai Marina, Dubai",
        "lat": 25.071599960327,
        "long": 55.135299682617,
        "type": "apartment"
    },
    {
        "Source": "https://www.bayut.com/property/details-4443055.html",
        "Emirate": " Dubai",
        "area": " Jumeirah Village Circle (JVC)",
        "building_name": "Oxford Residence",
        "full_address": "Oxford Residence, Jumeirah Village Circle (JVC), Dubai",
        "lat": 25.051454,
        "long": 55.21215,
        "type": "apartment"
    },
    {
        "Source": "https://www.bayut.com/property/details-4443063.html",
        "Emirate": " Dubai",
        "area": " Jumeirah Village Circle (JVC)",
        "building_name": "Knightsbridge Court",
        "full_address": "Knightsbridge Court, Jumeirah Village Circle (JVC), Dubai",
        "lat": 25.048504,
        "long": 55.207844,
        "type": "apartment"
    },
    {
        "Source": "https://www.bayut.com/property/details-4405627.html",
        "Emirate": " Dubai",
        "area": " The Greens",
        "building_name": "Al Arta 3, Al Arta",
        "full_address": "Al Arta 3, Al Arta, The Greens, Dubai",
        "lat": 25.091045,
        "long": 55.173639,
        "type": "apartment"
    },
    {
        "Source": "https://www.bayut.com/property/details-4405278.html",
        "Emirate": " Dubai",
        "area": " Downtown Dubai",
        "building_name": "29 Boulevard 2, 29 Boulevard",
        "full_address": "29 Boulevard 2, 29 Boulevard, Downtown Dubai, Dubai",
        "lat": 25.191772,
        "long": 55.272181,
        "type": "apartment"
    },
    {
        "Source": "https://www.bayut.com/property/details-4404757.html",
        "Emirate": " Dubai",
        "area": " Dubai Marina",
        "building_name": "West Avenue",
        "full_address": "West Avenue, Dubai Marina, Dubai",
        "lat": 25.074399723472,
        "long": 55.138877481222,
        "type": "apartment"
    },
    {
        "Source": "https://www.bayut.com/property/details-4409477.html",
        "Emirate": " Dubai",
        "area": " Jumeirah",
        "building_name": "Building 7, City Walk",
        "full_address": "Building 7, City Walk, Jumeirah, Dubai",
        "lat": 25.202562,
        "long": 55.262206,
        "type": "apartment"
    },
    {
        "Source": "https://www.bayut.com/property/details-4398370.html",
        "Emirate": " Dubai",
        "area": " DIFC",
        "building_name": "Index Tower",
        "full_address": "Index Tower, DIFC, Dubai",
        "lat": 25.207504,
        "long": 55.277685,
        "type": "apartment"
    },
    {
        "Source": "https://www.bayut.com/property/details-4396553.html",
        "Emirate": " Dubai",
        "area": " Downtown Dubai",
        "building_name": "The Lofts Central Tower, The Lofts",
        "full_address": "The Lofts Central Tower, The Lofts, Downtown Dubai, Dubai",
        "lat": 25.196733,
        "long": 55.269937,
        "type": "apartment"
    },
    {
        "Source": "https://www.bayut.com/property/details-4378970.html",
        "Emirate": " Dubai",
        "area": " Jumeirah Village Circle (JVC)",
        "building_name": "Maple 1, Emirates Garden 2",
        "full_address": "Maple 1, Emirates Garden 2, Jumeirah Village Circle (JVC), Dubai",
        "lat": 25.047464,
        "long": 55.204947,
        "type": "apartment"
    },
    {
        "Source": "https://www.bayut.com/property/details-4403471.html",
        "Emirate": " Dubai",
        "area": " Jumeirah",
        "building_name": "Building 11B, City Walk",
        "full_address": "Building 11B, City Walk, Jumeirah, Dubai",
        "lat": 25.203629,
        "long": 55.261652,
        "type": "apartment"
    },
    {
        "Source": "https://www.bayut.com/property/details-4267059.html",
        "Emirate": " Dubai",
        "area": " Dubai Marina",
        "building_name": "Blakely Tower, Park Island",
        "full_address": "Blakely Tower, Park Island, Dubai Marina, Dubai",
        "lat": 25.082691,
        "long": 55.142307,
        "type": "apartment"
    },
    {
        "Source": "https://www.bayut.com/property/details-4413095.html",
        "Emirate": " Dubai",
        "area": " Business Bay",
        "building_name": "Executive Tower L, Executive Towers",
        "full_address": "Executive Tower L, Executive Towers, Business Bay, Dubai",
        "lat": 25.190585,
        "long": 55.266117,
        "type": "apartment"
    },
    {
        "Source": "https://www.bayut.com/property/details-4298620.html",
        "Emirate": " Dubai",
        "area": " Dubai Marina",
        "building_name": "Princess Tower",
        "full_address": "Princess Tower, Dubai Marina, Dubai",
        "lat": 25.08829,
        "long": 55.147253,
        "type": "apartment"
    },
    {
        "Source": "https://www.bayut.com/property/details-4369916.html",
        "Emirate": " Dubai",
        "area": " Dubai Marina",
        "building_name": "The Jewel Tower B, The Jewels",
        "full_address": "The Jewel Tower B, The Jewels, Dubai Marina, Dubai",
        "lat": 25.071637,
        "long": 55.129834,
        "type": "apartment"
    },
    {
        "Source": "https://www.bayut.com/property/details-4146834.html",
        "Emirate": " Dubai",
        "area": " Downtown Dubai",
        "building_name": "South Ridge 1, South Ridge Towers",
        "full_address": "South Ridge 1, South Ridge Towers, Downtown Dubai, Dubai",
        "lat": 25.186969,
        "long": 55.276799,
        "type": "apartment"
    },
    {
        "Source": "https://www.bayut.com/property/details-4270330.html",
        "Emirate": " Dubai",
        "area": " Downtown Dubai",
        "building_name": "Burj Vista 1, Burj Vista",
        "full_address": "Burj Vista 1, Burj Vista, Downtown Dubai, Dubai",
        "lat": 25.198443,
        "long": 55.270758,
        "type": "apartment"
    },
    {
        "Source": "https://www.bayut.com/property/details-4402696.html",
        "Emirate": " Dubai",
        "area": " Business Bay",
        "building_name": "Executive tower B, Executive Towers",
        "full_address": "Executive tower B, Executive Towers, Business Bay, Dubai",
        "lat": 25.192523,
        "long": 55.266316,
        "type": "apartment"
    },
    {
        "Source": "https://www.bayut.com/property/details-4301354.html",
        "Emirate": " Dubai",
        "area": " Meydan City",
        "building_name": "Polo Residence, Meydan Avenue",
        "full_address": "Polo Residence, Meydan Avenue, Meydan City, Dubai",
        "lat": 25.151999,
        "long": 55.294782,
        "type": "apartment"
    },
    {
        "Source": "https://www.bayut.com/property/details-4403379.html",
        "Emirate": " Dubai",
        "area": " Jumeirah",
        "building_name": "Building 9, City Walk",
        "full_address": "Building 9, City Walk, Jumeirah, Dubai",
        "lat": 25.205439,
        "long": 55.262553,
        "type": "apartment"
    },
    {
        "Source": "https://www.bayut.com/property/details-4298470.html",
        "Emirate": " Dubai",
        "area": " Business Bay",
        "building_name": "Paramount Tower 4, Paramount Towers",
        "full_address": "Paramount Tower 4, Paramount Towers, Business Bay, Dubai",
        "lat": 25.193518,
        "long": 55.265523,
        "type": "apartment"
    },
    {
        "Source": "https://www.bayut.com/property/details-4335913.html",
        "Emirate": " Dubai",
        "area": " Downtown Dubai",
        "building_name": "The Address Fountain Views 1, The Address Residence Fountain Views",
        "full_address": "The Address Fountain Views 1, The Address Residence Fountain Views, Downtown Dubai, Dubai",
        "lat": 25.194738,
        "long": 55.282366,
        "type": "apartment"
    },
    {
        "Source": "https://www.bayut.com/property/details-4497877.html",
        "Emirate": " Dubai",
        "area": " Bluewaters Island",
        "building_name": "Apartment Building 4, Bluewaters Residences",
        "full_address": "Apartment Building 4, Bluewaters Residences, Bluewaters Island, Dubai",
        "lat": 25.078628,
        "long": 55.123085,
        "type": "apartment"
    },
    {
        "Source": "https://www.bayut.com/property/details-4484129.html",
        "Emirate": " Dubai",
        "area": " Palm Jumeirah",
        "building_name": "Oceana Aegean, Oceana",
        "full_address": "Oceana Aegean, Oceana, Palm Jumeirah, Dubai",
        "lat": 25.112154,
        "long": 55.137438,
        "type": "apartment"
    },
    {
        "Source": "https://www.bayut.com/property/details-4227899.html",
        "Emirate": " Dubai",
        "area": " Meydan City",
        "building_name": "Polo Residence, Meydan Avenue",
        "full_address": "Polo Residence, Meydan Avenue, Meydan City, Dubai",
        "lat": 25.151999,
        "long": 55.294782,
        "type": "apartment"
    },
    {
        "Source": "https://www.bayut.com/property/details-3618627.html",
        "Emirate": " Dubai",
        "area": " The Lagoons",
        "building_name": "Dubai Creek Residence Tower 1 South, Dubai Creek Harbour",
        "full_address": "Dubai Creek Residence Tower 1 South, Dubai Creek Harbour, The Lagoons, Dubai",
        "lat": 25.206207,
        "long": 55.345667,
        "type": "apartment"
    },
    {
        "Source": "https://www.bayut.com/property/details-4207649.html",
        "Emirate": " Dubai",
        "area": " Downtown Dubai",
        "building_name": "Boulevard Crescent 1, Boulevard Crescent",
        "full_address": "Boulevard Crescent 1, Boulevard Crescent, Downtown Dubai, Dubai",
        "lat": 25.191735,
        "long": 55.27048,
        "type": "apartment"
    },
    {
        "Source": "https://www.bayut.com/property/details-4206537.html",
        "Emirate": " Dubai",
        "area": " The Hills",
        "building_name": "C2, The Hills C",
        "full_address": "C2, The Hills C, The Hills, Dubai",
        "lat": 25.079195,
        "long": 55.157687,
        "type": "apartment"
    },
    {
        "Source": "https://www.bayut.com/property/details-4189928.html",
        "Emirate": " Dubai",
        "area": " Jumeirah Beach Residence (JBR)",
        "building_name": "Murjan 2, Murjan",
        "full_address": "Murjan 2, Murjan, Jumeirah Beach Residence (JBR), Dubai",
        "lat": 25.081989,
        "long": 55.138959,
        "type": "apartment"
    },
    {
        "Source": "https://www.bayut.com/property/details-4113525.html",
        "Emirate": " Dubai",
        "area": " Palm Jumeirah",
        "building_name": "Al Sarrood, Shoreline Apartments",
        "full_address": "Al Sarrood, Shoreline Apartments, Palm Jumeirah, Dubai",
        "lat": 25.111924,
        "long": 55.142494,
        "type": "apartment"
    },
    {
        "Source": "https://www.bayut.com/property/details-4187525.html",
        "Emirate": " Dubai",
        "area": " Jumeirah",
        "building_name": "Building 22, City Walk",
        "full_address": "Building 22, City Walk, Jumeirah, Dubai",
        "lat": 25.200213,
        "long": 55.264202,
        "type": "apartment"
    },
    {
        "Source": "https://www.bayut.com/property/details-4165671.html",
        "Emirate": " Dubai",
        "area": " Jumeirah",
        "building_name": "Building 22, City Walk",
        "full_address": "Building 22, City Walk, Jumeirah, Dubai",
        "lat": 25.200213,
        "long": 55.264202,
        "type": "apartment"
    },
    {
        "Source": "https://www.bayut.com/property/details-4150075.html",
        "Emirate": " Dubai",
        "area": " Dubai Marina",
        "building_name": "Marina Gate 1, Marina Gate",
        "full_address": "Marina Gate 1, Marina Gate, Dubai Marina, Dubai",
        "lat": 25.086438,
        "long": 55.147157,
        "type": "apartment"
    },
    {
        "Source": "https://www.bayut.com/property/details-4514928.html",
        "Emirate": " Dubai",
        "area": " Dubailand",
        "building_name": "Skycourts Tower E, Skycourts Towers",
        "full_address": "Skycourts Tower E, Skycourts Towers, Dubailand, Dubai",
        "lat": 25.091093,
        "long": 55.38516,
        "type": "apartment"
    },
    {
        "Source": "https://www.bayut.com/property/details-3827302.html",
        "Emirate": " Dubai",
        "area": " Dubai Marina",
        "building_name": "West Avenue",
        "full_address": "West Avenue, Dubai Marina, Dubai",
        "lat": 25.074399723472,
        "long": 55.138877481222,
        "type": "apartment"
    },
    {
        "Source": "https://www.bayut.com/property/details-4073886.html",
        "Emirate": " Dubai",
        "area": " Dubai Marina",
        "building_name": "Marina Quays North",
        "full_address": "Marina Quays North, Dubai Marina, Dubai",
        "lat": 25.076999,
        "long": 55.137009,
        "type": "apartment"
    },
    {
        "Source": "https://www.bayut.com/property/details-3109506.html",
        "Emirate": " Dubai",
        "area": " Business Bay",
        "building_name": "Damac Maison Bays Edge",
        "full_address": "Damac Maison Bays Edge, Business Bay, Dubai",
        "lat": 25.187581,
        "long": 55.269715,
        "type": "apartment"
    },
    {
        "Source": "https://www.bayut.com/property/details-3993804.html",
        "Emirate": " Dubai",
        "area": " Jumeirah",
        "building_name": "Building 22, City Walk",
        "full_address": "Building 22, City Walk, Jumeirah, Dubai",
        "lat": 25.200213,
        "long": 55.264202,
        "type": "apartment"
    },
    {
        "Source": "https://www.bayut.com/property/details-3893308.html",
        "Emirate": " Dubai",
        "area": " Downtown Dubai",
        "building_name": "The Address Fountain Views 1, The Address Residence Fountain Views",
        "full_address": "The Address Fountain Views 1, The Address Residence Fountain Views, Downtown Dubai, Dubai",
        "lat": 25.194738,
        "long": 55.282366,
        "type": "apartment"
    },
    {
        "Source": "https://www.bayut.com/property/details-3844678.html",
        "Emirate": " Dubai",
        "area": " Downtown Dubai",
        "building_name": "The Address Downtown Hotel (Lake Hotel)",
        "full_address": "The Address Downtown Hotel (Lake Hotel), Downtown Dubai, Dubai",
        "lat": 25.193638,
        "long": 55.279085,
        "type": "apartment"
    },
    {
        "Source": "https://www.bayut.com/property/details-3775211.html",
        "Emirate": " Dubai",
        "area": " The Hills",
        "building_name": "C1, The Hills C",
        "full_address": "C1, The Hills C, The Hills, Dubai",
        "lat": 25.079195,
        "long": 55.157687,
        "type": "apartment"
    },
    {
        "Source": "https://www.bayut.com/property/details-3813683.html",
        "Emirate": " Dubai",
        "area": " The Views",
        "building_name": "Panorama at the Views Tower 3, Panorama",
        "full_address": "Panorama at the Views Tower 3, Panorama, The Views, Dubai",
        "lat": 25.087609,
        "long": 55.172853,
        "type": "apartment"
    },
    {
        "Source": "https://www.bayut.com/property/details-3725130.html",
        "Emirate": " Dubai",
        "area": " Downtown Dubai",
        "building_name": "The Residence 8, The Residences",
        "full_address": "The Residence 8, The Residences, Downtown Dubai, Dubai",
        "lat": 25.191338,
        "long": 55.274329,
        "type": "apartment"
    },
    {
        "Source": "https://www.bayut.com/property/details-3560948.html",
        "Emirate": " Dubai",
        "area": " Downtown Dubai",
        "building_name": "Upper Crest (Burjside Terrace)",
        "full_address": "Upper Crest (Burjside Terrace), Downtown Dubai, Dubai",
        "lat": 25.193536913457,
        "long": 55.284457057714,
        "type": "apartment"
    },
    {
        "Source": "https://www.bayut.com/property/details-3589639.html",
        "Emirate": " Dubai",
        "area": " Jumeirah Village Circle (JVC)",
        "building_name": "Masaar Residence",
        "full_address": "Masaar Residence, Jumeirah Village Circle (JVC), Dubai",
        "lat": 25.055482698022,
        "long": 55.198364853859,
        "type": "apartment"
    },
    {
        "Source": "https://www.bayut.com/property/details-3560991.html",
        "Emirate": " Dubai",
        "area": " Downtown Dubai",
        "building_name": "Upper Crest (Burjside Terrace)",
        "full_address": "Upper Crest (Burjside Terrace), Downtown Dubai, Dubai",
        "lat": 25.193536913457,
        "long": 55.284457057714,
        "type": "apartment"
    },
    {
        "Source": "https://www.bayut.com/property/details-4546740.html",
        "Emirate": " Dubai",
        "area": " Downtown Dubai",
        "building_name": "Burj Al Nujoom",
        "full_address": "Burj Al Nujoom, Downtown Dubai, Dubai",
        "lat": 25.191151,
        "long": 55.282047,
        "type": "apartment"
    },
    {
        "Source": "https://www.bayut.com/property/details-4545916.html",
        "Emirate": " Dubai",
        "area": " Jumeirah Village Circle (JVC)",
        "building_name": "Gardenia 2, Emirates Garden",
        "full_address": "Gardenia 2, Emirates Garden, Jumeirah Village Circle (JVC), Dubai",
        "lat": 25.056659,
        "long": 55.204191,
        "type": "apartment"
    },
    {
        "Source": "https://www.bayut.com/property/details-4530311.html",
        "Emirate": " Dubai",
        "area": " Jumeirah Village Circle (JVC)",
        "building_name": "Crystal Residence",
        "full_address": "Crystal Residence, Jumeirah Village Circle (JVC), Dubai",
        "lat": 25.066607,
        "long": 55.214837,
        "type": "apartment"
    },
    {
        "Source": "https://www.bayut.com/property/details-4521668.html",
        "Emirate": " Dubai",
        "area": " Jumeirah",
        "building_name": "Building 22, City Walk",
        "full_address": "Building 22, City Walk, Jumeirah, Dubai",
        "lat": 25.200213,
        "long": 55.264202,
        "type": "other"
    },
    {
        "Source": "https://www.bayut.com/property/details-4523474.html",
        "Emirate": " Dubai",
        "area": " Dubai Sports City",
        "building_name": "The Matrix",
        "full_address": "The Matrix, Dubai Sports City, Dubai",
        "lat": 25.039144,
        "long": 55.220734,
        "type": "apartment"
    },
    {
        "Source": "https://www.bayut.com/property/details-4529574.html",
        "Emirate": " Dubai",
        "area": " Downtown Dubai",
        "building_name": "Burj Khalifa",
        "full_address": "Burj Khalifa, Downtown Dubai, Dubai",
        "lat": 25.197159,
        "long": 55.274491,
        "type": "apartment"
    },
    {
        "Source": "https://www.bayut.com/property/details-4517159.html",
        "Emirate": " Dubai",
        "area": " Downtown Dubai",
        "building_name": "Burj Views Podium, Burj Views",
        "full_address": "Burj Views Podium, Burj Views, Downtown Dubai, Dubai",
        "lat": 25.190677,
        "long": 55.281575,
        "type": "apartment"
    },
    {
        "Source": "https://www.bayut.com/property/details-4519568.html",
        "Emirate": " Dubai",
        "area": " Bluewaters Island",
        "building_name": "Apartment Building 10, Bluewaters Residences",
        "full_address": "Apartment Building 10, Bluewaters Residences, Bluewaters Island, Dubai",
        "lat": 25.082066,
        "long": 55.121741,
        "type": "other"
    },
    {
        "Source": "https://www.bayut.com/property/details-4160910.html",
        "Emirate": " Dubai",
        "area": " Dubai Marina",
        "building_name": "Marina Wharf I, Marina Wharf",
        "full_address": "Marina Wharf I, Marina Wharf, Dubai Marina, Dubai",
        "lat": 25.072617,
        "long": 55.132876,
        "type": "apartment"
    },
    {
        "Source": "https://www.bayut.com/property/details-4512286.html",
        "Emirate": " Dubai",
        "area": " Palm Jumeirah",
        "building_name": "FIVE Palm Jumeirah",
        "full_address": "FIVE Palm Jumeirah, Palm Jumeirah, Dubai",
        "lat": 25.104144,
        "long": 55.148481,
        "type": "apartment"
    },
    {
        "Source": "https://www.bayut.com/property/details-4514479.html",
        "Emirate": " Dubai",
        "area": " Jumeirah Village Circle (JVC)",
        "building_name": "Zaya Hameni",
        "full_address": "Zaya Hameni, Jumeirah Village Circle (JVC), Dubai",
        "lat": 25.056394,
        "long": 55.205059,
        "type": "apartment"
    },
    {
        "Source": "https://www.bayut.com/property/details-4511587.html",
        "Emirate": " Dubai",
        "area": " Jumeirah Beach Residence (JBR)",
        "building_name": "Shams 4, Shams",
        "full_address": "Shams 4, Shams, Jumeirah Beach Residence (JBR), Dubai",
        "lat": 25.072898,
        "long": 55.130092,
        "type": "apartment"
    },
    {
        "Source": "https://www.bayut.com/property/details-4509185.html",
        "Emirate": " Dubai",
        "area": " Dubai Marina",
        "building_name": "Marina Gate 2, Marina Gate",
        "full_address": "Marina Gate 2, Marina Gate, Dubai Marina, Dubai",
        "lat": 25.086438,
        "long": 55.147157,
        "type": "apartment"
    },
    {
        "Source": "https://www.bayut.com/property/details-4504149.html",
        "Emirate": " Dubai",
        "area": " Jumeirah Beach Residence (JBR)",
        "building_name": "Rimal 2, Rimal",
        "full_address": "Rimal 2, Rimal, Jumeirah Beach Residence (JBR), Dubai",
        "lat": 25.077412,
        "long": 55.134255,
        "type": "apartment"
    },
    {
        "Source": "https://www.bayut.com/property/details-4502864.html",
        "Emirate": " Dubai",
        "area": " Dubai Marina",
        "building_name": "Marina Gate 2, Marina Gate",
        "full_address": "Marina Gate 2, Marina Gate, Dubai Marina, Dubai",
        "lat": 25.086438,
        "long": 55.147157,
        "type": "apartment"
    },
    {
        "Source": "https://www.bayut.com/property/details-4506582.html",
        "Emirate": " Dubai",
        "area": " Jumeirah Village Circle (JVC)",
        "building_name": "Noora Residence",
        "full_address": "Noora Residence, Jumeirah Village Circle (JVC), Dubai",
        "lat": 25.059871,
        "long": 55.205251,
        "type": "apartment"
    },
    {
        "Source": "https://www.bayut.com/property/details-4492224.html",
        "Emirate": " Dubai",
        "area": " Dubai Marina",
        "building_name": "Yacht Bay",
        "full_address": "Yacht Bay, Dubai Marina, Dubai",
        "lat": 25.071475,
        "long": 55.136792,
        "type": "apartment"
    },
    {
        "Source": "https://www.bayut.com/property/details-4453012.html",
        "Emirate": " Dubai",
        "area": " Dubai Hills Estate",
        "building_name": "Mulberry, Park Heights",
        "full_address": "Mulberry, Park Heights, Dubai Hills Estate, Dubai",
        "lat": 25.103737,
        "long": 55.245125,
        "type": "other"
    },
    {
        "Source": "https://www.bayut.com/property/details-4484509.html",
        "Emirate": " Dubai",
        "area": " Downtown Dubai",
        "building_name": "Standpoint Tower 1, Standpoint Towers",
        "full_address": "Standpoint Tower 1, Standpoint Towers, Downtown Dubai, Dubai",
        "lat": 25.196713,
        "long": 55.271,
        "type": "apartment"
    },
    {
        "Source": "https://www.bayut.com/property/details-4482392.html",
        "Emirate": " Dubai",
        "area": " Jumeirah Village Circle (JVC)",
        "building_name": "Botanica",
        "full_address": "Botanica, Jumeirah Village Circle (JVC), Dubai",
        "lat": 25.050287,
        "long": 55.207637,
        "type": "apartment"
    },
    {
        "Source": "https://www.bayut.com/property/details-4481722.html",
        "Emirate": " Dubai",
        "area": " Dubai Marina",
        "building_name": "Princess Tower",
        "full_address": "Princess Tower, Dubai Marina, Dubai",
        "lat": 25.08829,
        "long": 55.147253,
        "type": "apartment"
    },
    {
        "Source": "https://www.bayut.com/property/details-4481403.html",
        "Emirate": " Dubai",
        "area": " The Views",
        "building_name": "Turia Tower B, Turia",
        "full_address": "Turia Tower B, Turia, The Views, Dubai",
        "lat": 25.093464,
        "long": 55.168964,
        "type": "other"
    },
    {
        "Source": "https://www.bayut.com/property/details-4475653.html",
        "Emirate": " Dubai",
        "area": " Jumeirah Beach Residence (JBR)",
        "building_name": "Shams 4, Shams",
        "full_address": "Shams 4, Shams, Jumeirah Beach Residence (JBR), Dubai",
        "lat": 25.072898,
        "long": 55.130092,
        "type": "apartment"
    },
    {
        "Source": "https://www.bayut.com/property/details-4481421.html",
        "Emirate": " Dubai",
        "area": " Business Bay",
        "building_name": "Fairview Residency",
        "full_address": "Fairview Residency, Business Bay, Dubai",
        "lat": 25.181891,
        "long": 55.279624,
        "type": "apartment"
    },
    {
        "Source": "https://www.bayut.com/property/details-4567256.html",
        "Emirate": " Dubai",
        "area": " Dubai Marina",
        "building_name": "Sparkle Tower 2, Sparkle Towers",
        "full_address": "Sparkle Tower 2, Sparkle Towers, Dubai Marina, Dubai",
        "lat": 25.071587,
        "long": 55.131803,
        "type": "apartment"
    },
    {
        "Source": "https://www.bayut.com/property/details-4556848.html",
        "Emirate": " Dubai",
        "area": " Dubai Marina",
        "building_name": "Bay Central",
        "full_address": "Bay Central, Dubai Marina, Dubai",
        "lat": 25.078557,
        "long": 55.137776,
        "type": "apartment"
    },
    {
        "Source": "https://www.bayut.com/property/details-4553245.html",
        "Emirate": " Dubai",
        "area": " Dubai Marina",
        "building_name": "DEC Towers",
        "full_address": "DEC Towers, Dubai Marina, Dubai",
        "lat": 25.068375,
        "long": 55.129743,
        "type": "apartment"
    },
    {
        "Source": "https://www.bayut.com/property/details-4549567.html",
        "Emirate": " Dubai",
        "area": " Dubai Marina",
        "building_name": "Manchester Tower",
        "full_address": "Manchester Tower, Dubai Marina, Dubai",
        "lat": 25.068199157715,
        "long": 55.13219833374,
        "type": "apartment"
    },
    {
        "Source": "https://www.bayut.com/property/details-4550642.html",
        "Emirate": " Dubai",
        "area": " Dubai Marina",
        "building_name": "Shemara, Marina Promenade",
        "full_address": "Shemara, Marina Promenade, Dubai Marina, Dubai",
        "lat": 25.074332,
        "long": 55.132742,
        "type": "apartment"
    },
    {
        "Source": "https://www.bayut.com/property/details-4537649.html",
        "Emirate": " Dubai",
        "area": " Dubai Marina",
        "building_name": "Marina Arcade",
        "full_address": "Marina Arcade, Dubai Marina, Dubai",
        "lat": 25.089622,
        "long": 55.14986,
        "type": "apartment"
    },
    {
        "Source": "https://www.bayut.com/property/details-4529469.html",
        "Emirate": " Dubai",
        "area": " Dubai Marina",
        "building_name": "Marina Gate 2, Marina Gate",
        "full_address": "Marina Gate 2, Marina Gate, Dubai Marina, Dubai",
        "lat": 25.086438,
        "long": 55.147157,
        "type": "apartment"
    },
    {
        "Source": "https://www.bayut.com/property/details-4530896.html",
        "Emirate": " Dubai",
        "area": " Dubai Marina",
        "building_name": "Manchester Tower",
        "full_address": "Manchester Tower, Dubai Marina, Dubai",
        "lat": 25.068199157715,
        "long": 55.13219833374,
        "type": "apartment"
    },
    {
        "Source": "https://www.bayut.com/property/details-4522413.html",
        "Emirate": " Dubai",
        "area": " Dubai Marina",
        "building_name": "Marina Pinnacle",
        "full_address": "Marina Pinnacle, Dubai Marina, Dubai",
        "lat": 25.08869934082,
        "long": 55.14820098877,
        "type": "apartment"
    },
    {
        "Source": "https://www.bayut.com/property/details-4519455.html",
        "Emirate": " Dubai",
        "area": " Dubai Marina",
        "building_name": "Beauport, Marina Promenade",
        "full_address": "Beauport, Marina Promenade, Dubai Marina, Dubai",
        "lat": 25.074878,
        "long": 55.133678,
        "type": "apartment"
    },
    {
        "Source": "https://www.bayut.com/property/details-4073405.html",
        "Emirate": " Dubai",
        "area": " Dubai Marina",
        "building_name": "Marina Gate 2, Marina Gate",
        "full_address": "Marina Gate 2, Marina Gate, Dubai Marina, Dubai",
        "lat": 25.086438,
        "long": 55.147157,
        "type": "apartment"
    },
    {
        "Source": "https://www.bayut.com/property/details-4523957.html",
        "Emirate": " Dubai",
        "area": " Dubai Marina",
        "building_name": "23 Marina",
        "full_address": "23 Marina, Dubai Marina, Dubai",
        "lat": 25.089767351636,
        "long": 55.150803923607,
        "type": "apartment"
    },
    {
        "Source": "https://www.bayut.com/property/details-4500141.html",
        "Emirate": " Dubai",
        "area": " Dubai Marina",
        "building_name": "Emirates Crown",
        "full_address": "Emirates Crown, Dubai Marina, Dubai",
        "lat": 25.088199615479,
        "long": 55.14640045166,
        "type": "apartment"
    },
    {
        "Source": "https://www.bayut.com/property/details-4500617.html",
        "Emirate": " Dubai",
        "area": " Dubai Marina",
        "building_name": "Marina Crown",
        "full_address": "Marina Crown, Dubai Marina, Dubai",
        "lat": 25.09001,
        "long": 55.148268,
        "type": "apartment"
    },
    {
        "Source": "https://www.bayut.com/property/details-4504338.html",
        "Emirate": " Dubai",
        "area": " Dubai Marina",
        "building_name": "Marina Gate 1, Marina Gate",
        "full_address": "Marina Gate 1, Marina Gate, Dubai Marina, Dubai",
        "lat": 25.086438,
        "long": 55.147157,
        "type": "apartment"
    },
    {
        "Source": "https://www.bayut.com/property/details-4500544.html",
        "Emirate": " Dubai",
        "area": " Dubai Marina",
        "building_name": "Marinascape Oceanic",
        "full_address": "Marinascape Oceanic, Dubai Marina, Dubai",
        "lat": 25.083315,
        "long": 55.146775,
        "type": "apartment"
    },
    {
        "Source": "https://www.bayut.com/property/details-4346467.html",
        "Emirate": " Dubai",
        "area": " Dubai Marina",
        "building_name": "5242 Towers",
        "full_address": "5242 Towers, Dubai Marina, Dubai",
        "lat": 25.071367,
        "long": 55.124955,
        "type": "apartment"
    },
    {
        "Source": "https://www.bayut.com/property/details-4494074.html",
        "Emirate": " Dubai",
        "area": " Dubai Marina",
        "building_name": "Marina Crown",
        "full_address": "Marina Crown, Dubai Marina, Dubai",
        "lat": 25.089967,
        "long": 55.148283,
        "type": "apartment"
    },
    {
        "Source": "https://www.bayut.com/property/details-4302283.html",
        "Emirate": " Dubai",
        "area": " Dubai Marina",
        "building_name": "LIV Residence",
        "full_address": "LIV Residence, Dubai Marina, Dubai",
        "lat": 25.080958,
        "long": 55.140594,
        "type": "apartment"
    },
    {
        "Source": "https://www.bayut.com/property/details-4482951.html",
        "Emirate": " Dubai",
        "area": " Dubai Marina",
        "building_name": "Bonaire Tower, Park Island",
        "full_address": "Bonaire Tower, Park Island, Dubai Marina, Dubai",
        "lat": 25.082091,
        "long": 55.142497,
        "type": "apartment"
    },
    {
        "Source": "https://www.bayut.com/property/details-4479238.html",
        "Emirate": " Dubai",
        "area": " Dubai Marina",
        "building_name": "Fairfield Tower, Park Island",
        "full_address": "Fairfield Tower, Park Island, Dubai Marina, Dubai",
        "lat": 25.081673,
        "long": 55.141993,
        "type": "apartment"
    },
    {
        "Source": "https://www.bayut.com/property/details-4476289.html",
        "Emirate": " Dubai",
        "area": " Dubai Marina",
        "building_name": "Al Sahab Tower 2, Al Sahab Tower",
        "full_address": "Al Sahab Tower 2, Al Sahab Tower, Dubai Marina, Dubai",
        "lat": 25.075682,
        "long": 55.135403,
        "type": "apartment"
    },
    {
        "Source": "https://www.bayut.com/property/details-4567289.html",
        "Emirate": " Dubai",
        "area": " Dubai Marina",
        "building_name": "Sparkle Tower 2, Sparkle Towers",
        "full_address": "Sparkle Tower 2, Sparkle Towers, Dubai Marina, Dubai",
        "lat": 25.071587,
        "long": 55.131803,
        "type": "apartment"
    },
    {
        "Source": "https://www.bayut.com/property/details-4482970.html",
        "Emirate": " Dubai",
        "area": " Dubai Marina",
        "building_name": "Blakely Tower, Park Island",
        "full_address": "Blakely Tower, Park Island, Dubai Marina, Dubai",
        "lat": 25.082691,
        "long": 55.142307,
        "type": "apartment"
    },
    {
        "Source": "https://www.bayut.com/property/details-4347680.html",
        "Emirate": " Dubai",
        "area": " Dubai Marina",
        "building_name": "Damac Heights",
        "full_address": "Damac Heights, Dubai Marina, Dubai",
        "lat": 25.087214,
        "long": 55.145463,
        "type": "apartment"
    },
    {
        "Source": "https://www.bayut.com/property/details-4396760.html",
        "Emirate": " Dubai",
        "area": " Dubai Marina",
        "building_name": "KG Tower",
        "full_address": "KG Tower, Dubai Marina, Dubai",
        "lat": 25.069512,
        "long": 55.12741,
        "type": "apartment"
    },
    {
        "Source": "https://www.bayut.com/property/details-4567239.html",
        "Emirate": " Dubai",
        "area": " Dubai Marina",
        "building_name": "LIV Residence",
        "full_address": "LIV Residence, Dubai Marina, Dubai",
        "lat": 25.080958,
        "long": 55.140594,
        "type": "apartment"
    },
    {
        "Source": "https://www.bayut.com/property/details-4368825.html",
        "Emirate": " Dubai",
        "area": " Dubai Marina",
        "building_name": "Marina Heights Tower",
        "full_address": "Marina Heights Tower, Dubai Marina, Dubai",
        "lat": 25.087200164795,
        "long": 55.14820098877,
        "type": "apartment"
    },
    {
        "Source": "https://www.bayut.com/property/details-4567309.html",
        "Emirate": " Dubai",
        "area": " Dubai Marina",
        "building_name": "Sparkle Tower 2, Sparkle Towers",
        "full_address": "Sparkle Tower 2, Sparkle Towers, Dubai Marina, Dubai",
        "lat": 25.071587,
        "long": 55.131803,
        "type": "apartment"
    },
    {
        "Source": "https://www.bayut.com/property/details-4315877.html",
        "Emirate": " Dubai",
        "area": " Dubai Marina",
        "building_name": "Marina Quays West",
        "full_address": "Marina Quays West, Dubai Marina, Dubai",
        "lat": 25.07644,
        "long": 55.13639,
        "type": "apartment"
    },
    {
        "Source": "https://www.bayut.com/property/details-4368826.html",
        "Emirate": " Dubai",
        "area": " Dubai Marina",
        "building_name": "Marina Heights Tower",
        "full_address": "Marina Heights Tower, Dubai Marina, Dubai",
        "lat": 25.087200164795,
        "long": 55.14820098877,
        "type": "apartment"
    },
    {
        "Source": "https://www.bayut.com/property/details-4330592.html",
        "Emirate": " Dubai",
        "area": " Dubai Marina",
        "building_name": "Manchester Tower",
        "full_address": "Manchester Tower, Dubai Marina, Dubai",
        "lat": 25.068199157715,
        "long": 55.13219833374,
        "type": "apartment"
    },
    {
        "Source": "https://www.bayut.com/property/details-4466655.html",
        "Emirate": " Dubai",
        "area": " Dubai Marina",
        "building_name": "Al Majara 3, Al Majara",
        "full_address": "Al Majara 3, Al Majara, Dubai Marina, Dubai",
        "lat": 25.07369,
        "long": 55.137388,
        "type": "apartment"
    },
    {
        "Source": "https://www.bayut.com/property/details-4377154.html",
        "Emirate": " Dubai",
        "area": " Dubai Marina",
        "building_name": "No. 9",
        "full_address": "No. 9, Dubai Marina, Dubai",
        "lat": 25.083446597461,
        "long": 55.144809186459,
        "type": "apartment"
    },
    {
        "Source": "https://www.bayut.com/property/details-3844642.html",
        "Emirate": " Dubai",
        "area": " Dubai Marina",
        "building_name": "Elite Residence",
        "full_address": "Elite Residence, Dubai Marina, Dubai",
        "lat": 25.089626,
        "long": 55.148014,
        "type": "apartment"
    },
    {
        "Source": "https://www.bayut.com/property/details-4484330.html",
        "Emirate": " Dubai",
        "area": " Dubai Marina",
        "building_name": "Marina Terrace",
        "full_address": "Marina Terrace, Dubai Marina, Dubai",
        "lat": 25.084499359131,
        "long": 55.144500732422,
        "type": "apartment"
    },
    {
        "Source": "https://www.bayut.com/property/details-4473418.html",
        "Emirate": " Dubai",
        "area": " Dubai Marina",
        "building_name": "The Torch",
        "full_address": "The Torch, Dubai Marina, Dubai",
        "lat": 25.087900161743,
        "long": 55.147399902344,
        "type": "apartment"
    },
    {
        "Source": "https://www.bayut.com/property/details-4258708.html",
        "Emirate": " Dubai",
        "area": " Dubai Marina",
        "building_name": "The Jewel Tower B, The Jewels",
        "full_address": "The Jewel Tower B, The Jewels, Dubai Marina, Dubai",
        "lat": 25.071637,
        "long": 55.129834,
        "type": "apartment"
    },
    {
        "Source": "https://www.bayut.com/property/details-4510355.html",
        "Emirate": " Dubai",
        "area": " Dubai Marina",
        "building_name": "Dorrabay",
        "full_address": "Dorrabay, Dubai Marina, Dubai",
        "lat": 25.071500778198,
        "long": 55.128898620605,
        "type": "apartment"
    },
    {
        "Source": "https://www.bayut.com/property/details-4199568.html",
        "Emirate": " Dubai",
        "area": " Dubai Marina",
        "building_name": "Al Majara 5, Al Majara",
        "full_address": "Al Majara 5, Al Majara, Dubai Marina, Dubai",
        "lat": 25.073999404907,
        "long": 55.136798858643,
        "type": "apartment"
    },
    {
        "Source": "https://www.bayut.com/property/details-4480785.html",
        "Emirate": " Dubai",
        "area": " Dubai Marina",
        "building_name": "Trident Grand Residence",
        "full_address": "Trident Grand Residence, Dubai Marina, Dubai",
        "lat": 25.082949,
        "long": 55.141301,
        "type": "apartment"
    },
    {
        "Source": "https://www.bayut.com/property/details-4542685.html",
        "Emirate": " Dubai",
        "area": " Dubai Marina",
        "building_name": "Al Fairooz Tower, Dubai Marina Towers (Emaar 6 Towers)",
        "full_address": "Al Fairooz Tower, Dubai Marina Towers (Emaar 6 Towers), Dubai Marina, Dubai",
        "lat": 25.085705782289,
        "long": 55.14883518219,
        "type": "apartment"
    },
    {
        "Source": "https://www.bayut.com/property/details-4568951.html",
        "Emirate": " Dubai",
        "area": " Dubai Marina",
        "building_name": "Studio One Tower",
        "full_address": "Studio One Tower, Dubai Marina, Dubai",
        "lat": 25.068527,
        "long": 55.128906,
        "type": "apartment"
    },
    {
        "Source": "https://www.bayut.com/property/details-4560646.html",
        "Emirate": " Dubai",
        "area": " Dubai Marina",
        "building_name": "Mag 218 Tower",
        "full_address": "Mag 218 Tower, Dubai Marina, Dubai",
        "lat": 25.087999343872,
        "long": 55.149101257324,
        "type": "apartment"
    },
    {
        "Source": "https://www.bayut.com/property/details-4473137.html",
        "Emirate": " Dubai",
        "area": " Dubai Marina",
        "building_name": "Paloma, Marina Promenade",
        "full_address": "Paloma, Marina Promenade, Dubai Marina, Dubai",
        "lat": 25.075284,
        "long": 55.134437,
        "type": "apartment"
    },
    {
        "Source": "https://www.bayut.com/property/details-4461112.html",
        "Emirate": " Dubai",
        "area": " Dubai Marina",
        "building_name": "Marina Diamond 3, Marina Diamonds",
        "full_address": "Marina Diamond 3, Marina Diamonds, Dubai Marina, Dubai",
        "lat": 25.081678,
        "long": 55.14697,
        "type": "apartment"
    },
    {
        "Source": "https://www.bayut.com/property/details-4551502.html",
        "Emirate": " Dubai",
        "area": " Dubai Marina",
        "building_name": "Marina Tower",
        "full_address": "Marina Tower, Dubai Marina, Dubai",
        "lat": 25.084059,
        "long": 55.144741,
        "type": "apartment"
    },
    {
        "Source": "https://www.bayut.com/property/details-4512988.html",
        "Emirate": " Dubai",
        "area": " Dubai Marina",
        "building_name": "Al Murjan Tower, Dubai Marina Towers (Emaar 6 Towers)",
        "full_address": "Al Murjan Tower, Dubai Marina Towers (Emaar 6 Towers), Dubai Marina, Dubai",
        "lat": 25.085399627686,
        "long": 55.149299621582,
        "type": "apartment"
    },
    {
        "Source": "https://www.bayut.com/property/details-4562051.html",
        "Emirate": " Dubai",
        "area": " Dubai Marina",
        "building_name": "Studio One Tower",
        "full_address": "Studio One Tower, Dubai Marina, Dubai",
        "lat": 25.068527,
        "long": 55.128906,
        "type": "apartment"
    },
    {
        "Source": "https://www.bayut.com/property/details-4560695.html",
        "Emirate": " Dubai",
        "area": " Dubai Marina",
        "building_name": "Cayan Tower",
        "full_address": "Cayan Tower, Dubai Marina, Dubai",
        "lat": 25.086782726638,
        "long": 55.145288407857,
        "type": "apartment"
    },
    {
        "Source": "https://www.bayut.com/property/details-4556997.html",
        "Emirate": " Dubai",
        "area": " Dubai Marina",
        "building_name": "Marina Gate 1, Marina Gate",
        "full_address": "Marina Gate 1, Marina Gate, Dubai Marina, Dubai",
        "lat": 25.086438,
        "long": 55.147157,
        "type": "apartment"
    },
    {
        "Source": "https://www.bayut.com/property/details-4556317.html",
        "Emirate": " Dubai",
        "area": " Dubai Marina",
        "building_name": "Paloma, Marina Promenade",
        "full_address": "Paloma, Marina Promenade, Dubai Marina, Dubai",
        "lat": 25.075284,
        "long": 55.134437,
        "type": "apartment"
    },
    {
        "Source": "https://www.bayut.com/property/details-4556316.html",
        "Emirate": " Dubai",
        "area": " Dubai Marina",
        "building_name": "Shemara, Marina Promenade",
        "full_address": "Shemara, Marina Promenade, Dubai Marina, Dubai",
        "lat": 25.074332,
        "long": 55.132742,
        "type": "apartment"
    },
    {
        "Source": "https://www.bayut.com/property/details-4555360.html",
        "Emirate": " Dubai",
        "area": " Dubai Marina",
        "building_name": "The Jewel Tower B, The Jewels",
        "full_address": "The Jewel Tower B, The Jewels, Dubai Marina, Dubai",
        "lat": 25.071637,
        "long": 55.129834,
        "type": "apartment"
    },
    {
        "Source": "https://www.bayut.com/property/details-4390159.html",
        "Emirate": " Dubai",
        "area": " Dubai Marina",
        "building_name": "Le Reve",
        "full_address": "Le Reve, Dubai Marina, Dubai",
        "lat": 25.089342,
        "long": 55.147435,
        "type": "apartment"
    },
    {
        "Source": "https://www.bayut.com/property/details-4552447.html",
        "Emirate": " Dubai",
        "area": " Dubai Marina",
        "building_name": "Marina Tower",
        "full_address": "Marina Tower, Dubai Marina, Dubai",
        "lat": 25.084082756547,
        "long": 55.144742801785,
        "type": "apartment"
    },
    {
        "Source": "https://www.bayut.com/property/details-4552445.html",
        "Emirate": " Dubai",
        "area": " Dubai Marina",
        "building_name": "Marina Quays North",
        "full_address": "Marina Quays North, Dubai Marina, Dubai",
        "lat": 25.077144951909,
        "long": 55.136904716492,
        "type": "apartment"
    },
    {
        "Source": "https://www.bayut.com/property/details-4552223.html",
        "Emirate": " Dubai",
        "area": " Dubai Marina",
        "building_name": "Al Sahab Tower 2, Al Sahab Tower",
        "full_address": "Al Sahab Tower 2, Al Sahab Tower, Dubai Marina, Dubai",
        "lat": 25.075682,
        "long": 55.135403,
        "type": "apartment"
    },
    {
        "Source": "https://www.bayut.com/property/details-4549595.html",
        "Emirate": " Dubai",
        "area": " Dubai Marina",
        "building_name": "The Waterfront",
        "full_address": "The Waterfront, Dubai Marina, Dubai",
        "lat": 25.067765,
        "long": 55.131725,
        "type": "apartment"
    },
    {
        "Source": "https://www.bayut.com/property/details-4547114.html",
        "Emirate": " Dubai",
        "area": " Dubai Marina",
        "building_name": "Cayan Tower",
        "full_address": "Cayan Tower, Dubai Marina, Dubai",
        "lat": 25.086782726638,
        "long": 55.145288407857,
        "type": "apartment"
    },
    {
        "Source": "https://www.bayut.com/property/details-4549368.html",
        "Emirate": " Dubai",
        "area": " Dubai Marina",
        "building_name": "Al Sahab Tower 2, Al Sahab Tower",
        "full_address": "Al Sahab Tower 2, Al Sahab Tower, Dubai Marina, Dubai",
        "lat": 25.075682,
        "long": 55.135403,
        "type": "apartment"
    },
    {
        "Source": "https://www.bayut.com/property/details-4546895.html",
        "Emirate": " Dubai",
        "area": " Dubai Marina",
        "building_name": "Yacht Bay",
        "full_address": "Yacht Bay, Dubai Marina, Dubai",
        "lat": 25.071475,
        "long": 55.136792,
        "type": "apartment"
    },
    {
        "Source": "https://www.bayut.com/property/details-4548781.html",
        "Emirate": " Dubai",
        "area": " Dubai Marina",
        "building_name": "Marina Tower",
        "full_address": "Marina Tower, Dubai Marina, Dubai",
        "lat": 25.084082756547,
        "long": 55.144742801785,
        "type": "apartment"
    },
    {
        "Source": "https://www.bayut.com/property/details-4550398.html",
        "Emirate": " Dubai",
        "area": " Dubai Marina",
        "building_name": "Marinascape Oceanic",
        "full_address": "Marinascape Oceanic, Dubai Marina, Dubai",
        "lat": 25.083315,
        "long": 55.146775,
        "type": "apartment"
    },
    {
        "Source": "https://www.bayut.com/property/details-4505572.html",
        "Emirate": " Dubai",
        "area": " Dubai Marina",
        "building_name": "DEC Towers",
        "full_address": "DEC Towers, Dubai Marina, Dubai",
        "lat": 25.068375,
        "long": 55.129743,
        "type": "apartment"
    },
    {
        "Source": "https://www.bayut.com/property/details-4515889.html",
        "Emirate": " Dubai",
        "area": " Dubai Marina",
        "building_name": "Time Place",
        "full_address": "Time Place, Dubai Marina, Dubai",
        "lat": 25.080451,
        "long": 55.144278,
        "type": "apartment"
    },
    {
        "Source": "https://www.bayut.com/property/details-4333826.html",
        "Emirate": " Dubai",
        "area": " Dubai Marina",
        "building_name": "Marina Residence B, Marina Residence",
        "full_address": "Marina Residence B, Marina Residence, Dubai Marina, Dubai",
        "lat": 25.072374,
        "long": 55.137811,
        "type": "apartment"
    },
    {
        "Source": "https://www.bayut.com/property/details-4542930.html",
        "Emirate": " Dubai",
        "area": " Dubai Marina",
        "building_name": "Blakely Tower, Park Island",
        "full_address": "Blakely Tower, Park Island, Dubai Marina, Dubai",
        "lat": 25.082691,
        "long": 55.142307,
        "type": "apartment"
    },
    {
        "Source": "https://www.bayut.com/property/details-4539427.html",
        "Emirate": " Dubai",
        "area": " Dubai Marina",
        "building_name": "Marina Gate 1, Marina Gate",
        "full_address": "Marina Gate 1, Marina Gate, Dubai Marina, Dubai",
        "lat": 25.086438,
        "long": 55.147157,
        "type": "apartment"
    },
    {
        "Source": "https://www.bayut.com/property/details-4534521.html",
        "Emirate": " Dubai",
        "area": " Dubai Marina",
        "building_name": "Marina Quays West",
        "full_address": "Marina Quays West, Dubai Marina, Dubai",
        "lat": 25.07644,
        "long": 55.13639,
        "type": "apartment"
    },
    {
        "Source": "https://www.bayut.com/property/details-4538107.html",
        "Emirate": " Dubai",
        "area": " Dubai Marina",
        "building_name": "Al Murjan Tower, Dubai Marina Towers (Emaar 6 Towers)",
        "full_address": "Al Murjan Tower, Dubai Marina Towers (Emaar 6 Towers), Dubai Marina, Dubai",
        "lat": 25.085399627686,
        "long": 55.149299621582,
        "type": "apartment"
    },
    {
        "Source": "https://www.bayut.com/property/details-4530413.html",
        "Emirate": " Dubai",
        "area": " Dubai Marina",
        "building_name": "Dorrabay",
        "full_address": "Dorrabay, Dubai Marina, Dubai",
        "lat": 25.071500778198,
        "long": 55.128898620605,
        "type": "apartment"
    },
    {
        "Source": "https://www.bayut.com/property/details-4535324.html",
        "Emirate": " Dubai",
        "area": " Dubai Marina",
        "building_name": "Trident Bayside",
        "full_address": "Trident Bayside, Dubai Marina, Dubai",
        "lat": 25.081418,
        "long": 55.145019,
        "type": "apartment"
    },
    {
        "Source": "https://www.bayut.com/property/details-4532400.html",
        "Emirate": " Dubai",
        "area": " Dubai Marina",
        "building_name": "Marina Park",
        "full_address": "Marina Park, Dubai Marina, Dubai",
        "lat": 25.068739805699,
        "long": 55.133528769046,
        "type": "apartment"
    },
    {
        "Source": "https://www.bayut.com/property/details-4521899.html",
        "Emirate": " Dubai",
        "area": " Dubai Marina",
        "building_name": "Bay Central West, Bay Central",
        "full_address": "Bay Central West, Bay Central, Dubai Marina, Dubai",
        "lat": 25.078416,
        "long": 55.137473,
        "type": "apartment"
    },
    {
        "Source": "https://www.bayut.com/property/details-4335927.html",
        "Emirate": " Dubai",
        "area": " Dubai Marina",
        "building_name": "Elite Residence",
        "full_address": "Elite Residence, Dubai Marina, Dubai",
        "lat": 25.089626,
        "long": 55.148014,
        "type": "apartment"
    },
    {
        "Source": "https://www.bayut.com/property/details-4523628.html",
        "Emirate": " Dubai",
        "area": " Dubai Marina",
        "building_name": "The Belvedere",
        "full_address": "The Belvedere, Dubai Marina, Dubai",
        "lat": 25.068199157715,
        "long": 55.130699157715,
        "type": "apartment"
    },
    {
        "Source": "https://www.bayut.com/property/details-4522391.html",
        "Emirate": " Dubai",
        "area": " Dubai Marina",
        "building_name": "La Riviera",
        "full_address": "La Riviera, Dubai Marina, Dubai",
        "lat": 25.073423,
        "long": 55.138686,
        "type": "apartment"
    },
    {
        "Source": "https://www.bayut.com/property/details-4515813.html",
        "Emirate": " Dubai",
        "area": " Dubai Marina",
        "building_name": "Mag 218 Tower",
        "full_address": "Mag 218 Tower, Dubai Marina, Dubai",
        "lat": 25.087999343872,
        "long": 55.149101257324,
        "type": "apartment"
    },
    {
        "Source": "https://www.bayut.com/property/details-4515796.html",
        "Emirate": " Dubai",
        "area": " Dubai Marina",
        "building_name": "Sulafa Tower",
        "full_address": "Sulafa Tower, Dubai Marina, Dubai",
        "lat": 25.089437,
        "long": 55.149102,
        "type": "apartment"
    },
    {
        "Source": "https://www.bayut.com/property/details-4515729.html",
        "Emirate": " Dubai",
        "area": " Dubai Marina",
        "building_name": "Sulafa Tower",
        "full_address": "Sulafa Tower, Dubai Marina, Dubai",
        "lat": 25.089437,
        "long": 55.149102,
        "type": "apartment"
    },
    {
        "Source": "https://www.bayut.com/property/details-4481458.html",
        "Emirate": " Dubai",
        "area": " Dubai Marina",
        "building_name": "Dorrabay",
        "full_address": "Dorrabay, Dubai Marina, Dubai",
        "lat": 25.071500778198,
        "long": 55.128898620605,
        "type": "apartment"
    },
    {
        "Source": "https://www.bayut.com/property/details-4537595.html",
        "Emirate": " Dubai",
        "area": " Dubai Marina",
        "building_name": "LIV Residence",
        "full_address": "LIV Residence, Dubai Marina, Dubai",
        "lat": 25.080958,
        "long": 55.140594,
        "type": "apartment"
    },
    {
        "Source": "https://www.bayut.com/property/details-4512127.html",
        "Emirate": " Dubai",
        "area": " Dubai Marina",
        "building_name": "Cayan Tower",
        "full_address": "Cayan Tower, Dubai Marina, Dubai",
        "lat": 25.086782726638,
        "long": 55.145288407857,
        "type": "apartment"
    },
    {
        "Source": "https://www.bayut.com/property/details-4517141.html",
        "Emirate": " Dubai",
        "area": " Dubai Marina",
        "building_name": "Marina Diamond 5, Marina Diamonds",
        "full_address": "Marina Diamond 5, Marina Diamonds, Dubai Marina, Dubai",
        "lat": 25.081347704516,
        "long": 55.146448016167,
        "type": "apartment"
    },
    {
        "Source": "https://www.bayut.com/property/details-4510748.html",
        "Emirate": " Dubai",
        "area": " Dubai Marina",
        "building_name": "Ocean Heights",
        "full_address": "Ocean Heights, Dubai Marina, Dubai",
        "lat": 25.08952,
        "long": 55.149189,
        "type": "apartment"
    },
    {
        "Source": "https://www.bayut.com/property/details-4510386.html",
        "Emirate": " Dubai",
        "area": " Dubai Marina",
        "building_name": "Marina Heights Tower",
        "full_address": "Marina Heights Tower, Dubai Marina, Dubai",
        "lat": 25.087200164795,
        "long": 55.14820098877,
        "type": "apartment"
    },
    {
        "Source": "https://www.bayut.com/property/details-4505743.html",
        "Emirate": " Dubai",
        "area": " Dubai Marina",
        "building_name": "Mag 218 Tower",
        "full_address": "Mag 218 Tower, Dubai Marina, Dubai",
        "lat": 25.087999343872,
        "long": 55.149101257324,
        "type": "apartment"
    },
    {
        "Source": "https://www.bayut.com/property/details-4503451.html",
        "Emirate": " Dubai",
        "area": " Dubai Marina",
        "building_name": "Marina Gate 1, Marina Gate",
        "full_address": "Marina Gate 1, Marina Gate, Dubai Marina, Dubai",
        "lat": 25.086438,
        "long": 55.147157,
        "type": "apartment"
    },
    {
        "Source": "https://www.bayut.com/property/details-4504207.html",
        "Emirate": " Dubai",
        "area": " Dubai Marina",
        "building_name": "Elite Residence",
        "full_address": "Elite Residence, Dubai Marina, Dubai",
        "lat": 25.089626,
        "long": 55.148014,
        "type": "apartment"
    },
    {
        "Source": "https://www.bayut.com/property/details-4504053.html",
        "Emirate": " Dubai",
        "area": " Dubai Marina",
        "building_name": "Blakely Tower, Park Island",
        "full_address": "Blakely Tower, Park Island, Dubai Marina, Dubai",
        "lat": 25.082691,
        "long": 55.142307,
        "type": "apartment"
    },
    {
        "Source": "https://www.bayut.com/property/details-4503856.html",
        "Emirate": " Dubai",
        "area": " Dubai Marina",
        "building_name": "Al Mesk Tower, Dubai Marina Towers (Emaar 6 Towers)",
        "full_address": "Al Mesk Tower, Dubai Marina Towers (Emaar 6 Towers), Dubai Marina, Dubai",
        "lat": 25.084499359131,
        "long": 55.149101257324,
        "type": "apartment"
    },
    {
        "Source": "https://www.bayut.com/property/details-4517188.html",
        "Emirate": " Dubai",
        "area": " Dubai Marina",
        "building_name": "Marina Diamond 6, Marina Diamonds",
        "full_address": "Marina Diamond 6, Marina Diamonds, Dubai Marina, Dubai",
        "lat": 25.080789,
        "long": 55.145815,
        "type": "apartment"
    },
    {
        "Source": "https://www.bayut.com/property/details-4500143.html",
        "Emirate": " Dubai",
        "area": " Dubai Marina",
        "building_name": "Dorrabay",
        "full_address": "Dorrabay, Dubai Marina, Dubai",
        "lat": 25.071500778198,
        "long": 55.128898620605,
        "type": "apartment"
    },
    {
        "Source": "https://www.bayut.com/property/details-4219729.html",
        "Emirate": " Dubai",
        "area": " Dubai Marina",
        "building_name": "Marina Pinnacle",
        "full_address": "Marina Pinnacle, Dubai Marina, Dubai",
        "lat": 25.08869934082,
        "long": 55.14820098877,
        "type": "apartment"
    },
    {
        "Source": "https://www.bayut.com/property/details-4503987.html",
        "Emirate": " Dubai",
        "area": " Dubai Marina",
        "building_name": "Princess Tower",
        "full_address": "Princess Tower, Dubai Marina, Dubai",
        "lat": 25.08829,
        "long": 55.147253,
        "type": "apartment"
    },
    {
        "Source": "https://www.bayut.com/property/details-4567256.html",
        "Emirate": " Dubai",
        "area": " Dubai Marina",
        "building_name": "Sparkle Tower 2, Sparkle Towers",
        "full_address": "Sparkle Tower 2, Sparkle Towers, Dubai Marina, Dubai",
        "lat": 25.071587,
        "long": 55.131803,
        "type": "apartment"
    },
    {
        "Source": "https://www.bayut.com/property/details-4556848.html",
        "Emirate": " Dubai",
        "area": " Dubai Marina",
        "building_name": "Bay Central",
        "full_address": "Bay Central, Dubai Marina, Dubai",
        "lat": 25.078557,
        "long": 55.137776,
        "type": "apartment"
    },
    {
        "Source": "https://www.bayut.com/property/details-4553245.html",
        "Emirate": " Dubai",
        "area": " Dubai Marina",
        "building_name": "DEC Towers",
        "full_address": "DEC Towers, Dubai Marina, Dubai",
        "lat": 25.068375,
        "long": 55.129743,
        "type": "apartment"
    },
    {
        "Source": "https://www.bayut.com/property/details-4549567.html",
        "Emirate": " Dubai",
        "area": " Dubai Marina",
        "building_name": "Manchester Tower",
        "full_address": "Manchester Tower, Dubai Marina, Dubai",
        "lat": 25.068199157715,
        "long": 55.13219833374,
        "type": "apartment"
    },
    {
        "Source": "https://www.bayut.com/property/details-4550642.html",
        "Emirate": " Dubai",
        "area": " Dubai Marina",
        "building_name": "Shemara, Marina Promenade",
        "full_address": "Shemara, Marina Promenade, Dubai Marina, Dubai",
        "lat": 25.074332,
        "long": 55.132742,
        "type": "apartment"
    },
    {
        "Source": "https://www.bayut.com/property/details-4537649.html",
        "Emirate": " Dubai",
        "area": " Dubai Marina",
        "building_name": "Marina Arcade",
        "full_address": "Marina Arcade, Dubai Marina, Dubai",
        "lat": 25.089622,
        "long": 55.14986,
        "type": "apartment"
    },
    {
        "Source": "https://www.bayut.com/property/details-4529469.html",
        "Emirate": " Dubai",
        "area": " Dubai Marina",
        "building_name": "Marina Gate 2, Marina Gate",
        "full_address": "Marina Gate 2, Marina Gate, Dubai Marina, Dubai",
        "lat": 25.086438,
        "long": 55.147157,
        "type": "apartment"
    },
    {
        "Source": "https://www.bayut.com/property/details-4530896.html",
        "Emirate": " Dubai",
        "area": " Dubai Marina",
        "building_name": "Manchester Tower",
        "full_address": "Manchester Tower, Dubai Marina, Dubai",
        "lat": 25.068199157715,
        "long": 55.13219833374,
        "type": "apartment"
    },
    {
        "Source": "https://www.bayut.com/property/details-4522413.html",
        "Emirate": " Dubai",
        "area": " Dubai Marina",
        "building_name": "Marina Pinnacle",
        "full_address": "Marina Pinnacle, Dubai Marina, Dubai",
        "lat": 25.08869934082,
        "long": 55.14820098877,
        "type": "apartment"
    },
    {
        "Source": "https://www.bayut.com/property/details-4519455.html",
        "Emirate": " Dubai",
        "area": " Dubai Marina",
        "building_name": "Beauport, Marina Promenade",
        "full_address": "Beauport, Marina Promenade, Dubai Marina, Dubai",
        "lat": 25.074878,
        "long": 55.133678,
        "type": "apartment"
    },
    {
        "Source": "https://www.bayut.com/property/details-4073405.html",
        "Emirate": " Dubai",
        "area": " Dubai Marina",
        "building_name": "Marina Gate 2, Marina Gate",
        "full_address": "Marina Gate 2, Marina Gate, Dubai Marina, Dubai",
        "lat": 25.086438,
        "long": 55.147157,
        "type": "apartment"
    },
    {
        "Source": "https://www.bayut.com/property/details-4523957.html",
        "Emirate": " Dubai",
        "area": " Dubai Marina",
        "building_name": "23 Marina",
        "full_address": "23 Marina, Dubai Marina, Dubai",
        "lat": 25.089767351636,
        "long": 55.150803923607,
        "type": "apartment"
    },
    {
        "Source": "https://www.bayut.com/property/details-4500141.html",
        "Emirate": " Dubai",
        "area": " Dubai Marina",
        "building_name": "Emirates Crown",
        "full_address": "Emirates Crown, Dubai Marina, Dubai",
        "lat": 25.088199615479,
        "long": 55.14640045166,
        "type": "apartment"
    },
    {
        "Source": "https://www.bayut.com/property/details-4500617.html",
        "Emirate": " Dubai",
        "area": " Dubai Marina",
        "building_name": "Marina Crown",
        "full_address": "Marina Crown, Dubai Marina, Dubai",
        "lat": 25.09001,
        "long": 55.148268,
        "type": "apartment"
    },
    {
        "Source": "https://www.bayut.com/property/details-4504338.html",
        "Emirate": " Dubai",
        "area": " Dubai Marina",
        "building_name": "Marina Gate 1, Marina Gate",
        "full_address": "Marina Gate 1, Marina Gate, Dubai Marina, Dubai",
        "lat": 25.086438,
        "long": 55.147157,
        "type": "apartment"
    },
    {
        "Source": "https://www.bayut.com/property/details-4500544.html",
        "Emirate": " Dubai",
        "area": " Dubai Marina",
        "building_name": "Marinascape Oceanic",
        "full_address": "Marinascape Oceanic, Dubai Marina, Dubai",
        "lat": 25.083315,
        "long": 55.146775,
        "type": "apartment"
    },
    {
        "Source": "https://www.bayut.com/property/details-4346467.html",
        "Emirate": " Dubai",
        "area": " Dubai Marina",
        "building_name": "5242 Towers",
        "full_address": "5242 Towers, Dubai Marina, Dubai",
        "lat": 25.071367,
        "long": 55.124955,
        "type": "apartment"
    },
    {
        "Source": "https://www.bayut.com/property/details-4494074.html",
        "Emirate": " Dubai",
        "area": " Dubai Marina",
        "building_name": "Marina Crown",
        "full_address": "Marina Crown, Dubai Marina, Dubai",
        "lat": 25.089967,
        "long": 55.148283,
        "type": "apartment"
    },
    {
        "Source": "https://www.bayut.com/property/details-4302283.html",
        "Emirate": " Dubai",
        "area": " Dubai Marina",
        "building_name": "LIV Residence",
        "full_address": "LIV Residence, Dubai Marina, Dubai",
        "lat": 25.080958,
        "long": 55.140594,
        "type": "apartment"
    },
    {
        "Source": "https://www.bayut.com/property/details-4482951.html",
        "Emirate": " Dubai",
        "area": " Dubai Marina",
        "building_name": "Bonaire Tower, Park Island",
        "full_address": "Bonaire Tower, Park Island, Dubai Marina, Dubai",
        "lat": 25.082091,
        "long": 55.142497,
        "type": "apartment"
    },
    {
        "Source": "https://www.bayut.com/property/details-4479238.html",
        "Emirate": " Dubai",
        "area": " Dubai Marina",
        "building_name": "Fairfield Tower, Park Island",
        "full_address": "Fairfield Tower, Park Island, Dubai Marina, Dubai",
        "lat": 25.081673,
        "long": 55.141993,
        "type": "apartment"
    },
    {
        "Source": "https://www.bayut.com/property/details-4476289.html",
        "Emirate": " Dubai",
        "area": " Dubai Marina",
        "building_name": "Al Sahab Tower 2, Al Sahab Tower",
        "full_address": "Al Sahab Tower 2, Al Sahab Tower, Dubai Marina, Dubai",
        "lat": 25.075682,
        "long": 55.135403,
        "type": "apartment"
    },
    {
        "Source": "https://www.bayut.com/property/details-4567289.html",
        "Emirate": " Dubai",
        "area": " Dubai Marina",
        "building_name": "Sparkle Tower 2, Sparkle Towers",
        "full_address": "Sparkle Tower 2, Sparkle Towers, Dubai Marina, Dubai",
        "lat": 25.071587,
        "long": 55.131803,
        "type": "apartment"
    },
    {
        "Source": "https://www.bayut.com/property/details-4482970.html",
        "Emirate": " Dubai",
        "area": " Dubai Marina",
        "building_name": "Blakely Tower, Park Island",
        "full_address": "Blakely Tower, Park Island, Dubai Marina, Dubai",
        "lat": 25.082691,
        "long": 55.142307,
        "type": "apartment"
    },
    {
        "Source": "https://www.bayut.com/property/details-4529917.html",
        "Emirate": " Dubai",
        "area": " Jumeirah Lake Towers (JLT)",
        "building_name": "Al Seef Tower 3, Al Seef Towers",
        "full_address": "Al Seef Tower 3, Al Seef Towers, Jumeirah Lake Towers (JLT), Dubai",
        "lat": 25.079822,
        "long": 55.150766,
        "type": "apartment"
    },
    {
        "Source": "https://www.bayut.com/property/details-4561571.html",
        "Emirate": " Dubai",
        "area": " Jumeirah Lake Towers (JLT)",
        "building_name": "Concorde Tower",
        "full_address": "Concorde Tower, Jumeirah Lake Towers (JLT), Dubai",
        "lat": 25.069954,
        "long": 55.144074,
        "type": "apartment"
    },
    {
        "Source": "https://www.bayut.com/property/details-4474230.html",
        "Emirate": " Dubai",
        "area": " Jumeirah Lake Towers (JLT)",
        "building_name": "Saba Tower 3, Saba Tower",
        "full_address": "Saba Tower 3, Saba Tower, Jumeirah Lake Towers (JLT), Dubai",
        "lat": 25.076279,
        "long": 55.145298,
        "type": "apartment"
    },
    {
        "Source": "https://www.bayut.com/property/details-4549313.html",
        "Emirate": " Dubai",
        "area": " Jumeirah Lake Towers (JLT)",
        "building_name": "Saba Tower 2, Saba Tower",
        "full_address": "Saba Tower 2, Saba Tower, Jumeirah Lake Towers (JLT), Dubai",
        "lat": 25.076601,
        "long": 55.14552,
        "type": "apartment"
    },
    {
        "Source": "https://www.bayut.com/property/details-4218840.html",
        "Emirate": " Dubai",
        "area": " Jumeirah Lake Towers (JLT)",
        "building_name": "Saba Tower 2, Saba Tower",
        "full_address": "Saba Tower 2, Saba Tower, Jumeirah Lake Towers (JLT), Dubai",
        "lat": 25.076601,
        "long": 55.14552,
        "type": "apartment"
    },
    {
        "Source": "https://www.bayut.com/property/details-4352710.html",
        "Emirate": " Dubai",
        "area": " Jumeirah Lake Towers (JLT)",
        "building_name": "Lake Terrace",
        "full_address": "Lake Terrace, Jumeirah Lake Towers (JLT), Dubai",
        "lat": 25.069999694824,
        "long": 55.141201019287,
        "type": "apartment"
    },
    {
        "Source": "https://www.bayut.com/property/details-4504287.html",
        "Emirate": " Dubai",
        "area": " Jumeirah Lake Towers (JLT)",
        "building_name": "Goldcrest Views 1, Goldcrest Views",
        "full_address": "Goldcrest Views 1, Goldcrest Views, Jumeirah Lake Towers (JLT), Dubai",
        "lat": 25.07766,
        "long": 55.151078,
        "type": "apartment"
    },
    {
        "Source": "https://www.bayut.com/property/details-4515532.html",
        "Emirate": " Dubai",
        "area": " Jumeirah Lake Towers (JLT)",
        "building_name": "Dubai Arch Tower",
        "full_address": "Dubai Arch Tower, Jumeirah Lake Towers (JLT), Dubai",
        "lat": 25.071698,
        "long": 55.143677,
        "type": "apartment"
    },
    {
        "Source": "https://www.bayut.com/property/details-4531013.html",
        "Emirate": " Dubai",
        "area": " Jumeirah Lake Towers (JLT)",
        "building_name": "Dubai Arch Tower",
        "full_address": "Dubai Arch Tower, Jumeirah Lake Towers (JLT), Dubai",
        "lat": 25.071698,
        "long": 55.143677,
        "type": "apartment"
    },
    {
        "Source": "https://www.bayut.com/property/details-4202674.html",
        "Emirate": " Dubai",
        "area": " Jumeirah Lake Towers (JLT)",
        "building_name": "Mag 214 Tower",
        "full_address": "Mag 214 Tower, Jumeirah Lake Towers (JLT), Dubai",
        "lat": 25.077385,
        "long": 55.14736,
        "type": "apartment"
    },
    {
        "Source": "https://www.bayut.com/property/details-4537036.html",
        "Emirate": " Dubai",
        "area": " Jumeirah Lake Towers (JLT)",
        "building_name": "Green Lakes 3, Green Lakes",
        "full_address": "Green Lakes 3, Green Lakes, Jumeirah Lake Towers (JLT), Dubai",
        "lat": 25.079234,
        "long": 55.14868,
        "type": "apartment"
    },
    {
        "Source": "https://www.bayut.com/property/details-4528967.html",
        "Emirate": " Dubai",
        "area": " Jumeirah Lake Towers (JLT)",
        "building_name": "Al Seef Tower 2, Al Seef Towers",
        "full_address": "Al Seef Tower 2, Al Seef Towers, Jumeirah Lake Towers (JLT), Dubai",
        "lat": 25.079827,
        "long": 55.151523,
        "type": "apartment"
    },
    {
        "Source": "https://www.bayut.com/property/details-3765451.html",
        "Emirate": " Dubai",
        "area": " Jumeirah Lake Towers (JLT)",
        "building_name": "Lake Point Tower",
        "full_address": "Lake Point Tower, Jumeirah Lake Towers (JLT), Dubai",
        "lat": 25.063355,
        "long": 55.137683,
        "type": "apartment"
    },
    {
        "Source": "https://www.bayut.com/property/details-4529677.html",
        "Emirate": " Dubai",
        "area": " Jumeirah Lake Towers (JLT)",
        "building_name": "Armada Tower 3, Armada Tower",
        "full_address": "Armada Tower 3, Armada Tower, Jumeirah Lake Towers (JLT), Dubai",
        "lat": 25.075726,
        "long": 55.145456,
        "type": "apartment"
    },
    {
        "Source": "https://www.bayut.com/property/details-4519703.html",
        "Emirate": " Dubai",
        "area": " Jumeirah Lake Towers (JLT)",
        "building_name": "The Palladium",
        "full_address": "The Palladium, Jumeirah Lake Towers (JLT), Dubai",
        "lat": 25.069478,
        "long": 55.139592,
        "type": "apartment"
    },
    {
        "Source": "https://www.bayut.com/property/details-4515099.html",
        "Emirate": " Dubai",
        "area": " Jumeirah Lake Towers (JLT)",
        "building_name": "Tamweel Tower",
        "full_address": "Tamweel Tower, Jumeirah Lake Towers (JLT), Dubai",
        "lat": 25.080633,
        "long": 55.15159,
        "type": "apartment"
    },
    {
        "Source": "https://www.bayut.com/property/details-4510385.html",
        "Emirate": " Dubai",
        "area": " Jumeirah Lake Towers (JLT)",
        "building_name": "Saba Tower 3, Saba Tower",
        "full_address": "Saba Tower 3, Saba Tower, Jumeirah Lake Towers (JLT), Dubai",
        "lat": 25.076279,
        "long": 55.145298,
        "type": "apartment"
    },
    {
        "Source": "https://www.bayut.com/property/details-4505031.html",
        "Emirate": " Dubai",
        "area": " Jumeirah Lake Towers (JLT)",
        "building_name": "Global Lake View",
        "full_address": "Global Lake View, Jumeirah Lake Towers (JLT), Dubai",
        "lat": 25.071397,
        "long": 55.14085,
        "type": "apartment"
    },
    {
        "Source": "https://www.bayut.com/property/details-4512293.html",
        "Emirate": " Dubai",
        "area": " Jumeirah Lake Towers (JLT)",
        "building_name": "Tamweel Tower",
        "full_address": "Tamweel Tower, Jumeirah Lake Towers (JLT), Dubai",
        "lat": 25.080633,
        "long": 55.15159,
        "type": "apartment"
    },
    {
        "Source": "https://www.bayut.com/property/details-4400406.html",
        "Emirate": " Dubai",
        "area": " Jumeirah Lake Towers (JLT)",
        "building_name": "Dubai Arch Tower",
        "full_address": "Dubai Arch Tower, Jumeirah Lake Towers (JLT), Dubai",
        "lat": 25.071698,
        "long": 55.143677,
        "type": "apartment"
    },
    {
        "Source": "https://www.bayut.com/property/details-4505619.html",
        "Emirate": " Dubai",
        "area": " Jumeirah Lake Towers (JLT)",
        "building_name": "New Dubai Gate 1, New Dubai Gate",
        "full_address": "New Dubai Gate 1, New Dubai Gate, Jumeirah Lake Towers (JLT), Dubai",
        "lat": 25.076535176396,
        "long": 55.146925449371,
        "type": "apartment"
    },
    {
        "Source": "https://www.bayut.com/property/details-4073971.html",
        "Emirate": " Dubai",
        "area": " Jumeirah Lake Towers (JLT)",
        "building_name": "Indigo Tower",
        "full_address": "Indigo Tower, Jumeirah Lake Towers (JLT), Dubai",
        "lat": 25.072286,
        "long": 55.143179,
        "type": "apartment"
    },
    {
        "Source": "https://www.bayut.com/property/details-4494797.html",
        "Emirate": " Dubai",
        "area": " Jumeirah Lake Towers (JLT)",
        "building_name": "The Palladium",
        "full_address": "The Palladium, Jumeirah Lake Towers (JLT), Dubai",
        "lat": 25.069478,
        "long": 55.139592,
        "type": "apartment"
    },
    {
        "Source": "https://www.bayut.com/property/details-4392796.html",
        "Emirate": " Dubai",
        "area": " Jumeirah Lake Towers (JLT)",
        "building_name": "Global Lake View",
        "full_address": "Global Lake View, Jumeirah Lake Towers (JLT), Dubai",
        "lat": 25.071397,
        "long": 55.14085,
        "type": "apartment"
    },
    {
        "Source": "https://www.bayut.com/property/details-4295913.html",
        "Emirate": " Dubai",
        "area": " Jumeirah Lake Towers (JLT)",
        "building_name": "Madina Tower",
        "full_address": "Madina Tower, Jumeirah Lake Towers (JLT), Dubai",
        "lat": 25.074801,
        "long": 55.144487,
        "type": "apartment"
    },
    {
        "Source": "https://www.bayut.com/property/details-4267489.html",
        "Emirate": " Dubai",
        "area": " Jumeirah Lake Towers (JLT)",
        "building_name": "Armada Tower 3, Armada Tower",
        "full_address": "Armada Tower 3, Armada Tower, Jumeirah Lake Towers (JLT), Dubai",
        "lat": 25.075726,
        "long": 55.145456,
        "type": "apartment"
    },
    {
        "Source": "https://www.bayut.com/property/details-4272864.html",
        "Emirate": " Dubai",
        "area": " Jumeirah Lake Towers (JLT)",
        "building_name": "Lake Terrace",
        "full_address": "Lake Terrace, Jumeirah Lake Towers (JLT), Dubai",
        "lat": 25.069999694824,
        "long": 55.141201019287,
        "type": "apartment"
    },
    {
        "Source": "https://www.bayut.com/property/details-4217660.html",
        "Emirate": " Dubai",
        "area": " Jumeirah Lake Towers (JLT)",
        "building_name": "Dubai Star Tower",
        "full_address": "Dubai Star Tower, Jumeirah Lake Towers (JLT), Dubai",
        "lat": 25.065423,
        "long": 55.139434,
        "type": "apartment"
    },
    {
        "Source": "https://www.bayut.com/property/details-4217597.html",
        "Emirate": " Dubai",
        "area": " Jumeirah Lake Towers (JLT)",
        "building_name": "Green Lakes 2, Green Lakes",
        "full_address": "Green Lakes 2, Green Lakes, Jumeirah Lake Towers (JLT), Dubai",
        "lat": 25.078554,
        "long": 55.148647,
        "type": "apartment"
    },
    {
        "Source": "https://www.bayut.com/property/details-4458040.html",
        "Emirate": " Dubai",
        "area": " Jumeirah Lake Towers (JLT)",
        "building_name": "Al Shera Tower",
        "full_address": "Al Shera Tower, Jumeirah Lake Towers (JLT), Dubai",
        "lat": 25.071441,
        "long": 55.141802,
        "type": "apartment"
    },
    {
        "Source": "https://www.bayut.com/property/details-4195318.html",
        "Emirate": " Dubai",
        "area": " Jumeirah Lake Towers (JLT)",
        "building_name": "Lake Point Tower",
        "full_address": "Lake Point Tower, Jumeirah Lake Towers (JLT), Dubai",
        "lat": 25.063355,
        "long": 55.137683,
        "type": "apartment"
    },
    {
        "Source": "https://www.bayut.com/property/details-4465726.html",
        "Emirate": " Dubai",
        "area": " Jumeirah Lake Towers (JLT)",
        "building_name": "Armada Tower 3, Armada Tower",
        "full_address": "Armada Tower 3, Armada Tower, Jumeirah Lake Towers (JLT), Dubai",
        "lat": 25.075726,
        "long": 55.145456,
        "type": "apartment"
    },
    {
        "Source": "https://www.bayut.com/property/details-4185613.html",
        "Emirate": " Dubai",
        "area": " Jumeirah Lake Towers (JLT)",
        "building_name": "Lake Shore Tower",
        "full_address": "Lake Shore Tower, Jumeirah Lake Towers (JLT), Dubai",
        "lat": 25.078233,
        "long": 55.153969,
        "type": "apartment"
    },
    {
        "Source": "https://www.bayut.com/property/details-4166954.html",
        "Emirate": " Dubai",
        "area": " Jumeirah Lake Towers (JLT)",
        "building_name": "Lake Shore Tower",
        "full_address": "Lake Shore Tower, Jumeirah Lake Towers (JLT), Dubai",
        "lat": 25.078233,
        "long": 55.153969,
        "type": "apartment"
    },
    {
        "Source": "https://www.bayut.com/property/details-4159264.html",
        "Emirate": " Dubai",
        "area": " Jumeirah Lake Towers (JLT)",
        "building_name": "Lake Terrace",
        "full_address": "Lake Terrace, Jumeirah Lake Towers (JLT), Dubai",
        "lat": 25.069999694824,
        "long": 55.141201019287,
        "type": "apartment"
    },
    {
        "Source": "https://www.bayut.com/property/details-4073785.html",
        "Emirate": " Dubai",
        "area": " Jumeirah Lake Towers (JLT)",
        "building_name": "The Palladium",
        "full_address": "The Palladium, Jumeirah Lake Towers (JLT), Dubai",
        "lat": 25.069478,
        "long": 55.139592,
        "type": "apartment"
    },
    {
        "Source": "https://www.bayut.com/property/details-3636951.html",
        "Emirate": " Dubai",
        "area": " Jumeirah Lake Towers (JLT)",
        "building_name": "Al Shera Tower",
        "full_address": "Al Shera Tower, Jumeirah Lake Towers (JLT), Dubai",
        "lat": 25.071441,
        "long": 55.141802,
        "type": "apartment"
    },
    {
        "Source": "https://www.bayut.com/property/details-3091740.html",
        "Emirate": " Dubai",
        "area": " Jumeirah Lake Towers (JLT)",
        "building_name": "Lake Point Tower",
        "full_address": "Lake Point Tower, Jumeirah Lake Towers (JLT), Dubai",
        "lat": 25.063355,
        "long": 55.137683,
        "type": "apartment"
    },
    {
        "Source": "https://www.bayut.com/property/details-2979799.html",
        "Emirate": " Dubai",
        "area": " Jumeirah Lake Towers (JLT)",
        "building_name": "Lake Terrace",
        "full_address": "Lake Terrace, Jumeirah Lake Towers (JLT), Dubai",
        "lat": 25.069999694824,
        "long": 55.141201019287,
        "type": "apartment"
    },